{
  "language" : "en",
  "cities" : {
    "AD" : [ {
      "geonameid" : "3040051",
      "name" : "les Escaldes",
      "translatedname" : "les Escaldes",
      "lat" : "42.50729",
      "lng" : "1.53414"
    }, {
      "geonameid" : "3041563",
      "name" : "Andorra la Vella",
      "translatedname" : "Andorra la Vella",
      "lat" : "42.50779",
      "lng" : "1.52109"
    } ],
    "AE" : [ {
      "geonameid" : "290594",
      "name" : "Umm al Qaywayn",
      "translatedname" : "Umm al Qaywayn",
      "lat" : "25.56473",
      "lng" : "55.55517"
    }, {
      "geonameid" : "291074",
      "name" : "Ra’s al Khaymah",
      "translatedname" : "Ra’s al Khaymah",
      "lat" : "25.78953",
      "lng" : "55.9432"
    }, {
      "geonameid" : "291696",
      "name" : "Khawr Fakkān",
      "translatedname" : "Khawr Fakkān",
      "lat" : "25.33132",
      "lng" : "56.34199"
    }, {
      "geonameid" : "292223",
      "name" : "Dubai",
      "translatedname" : "Dubai",
      "lat" : "25.25817",
      "lng" : "55.30472"
    }, {
      "geonameid" : "292239",
      "name" : "Dibā",
      "translatedname" : "Dibā",
      "lat" : "25.61955",
      "lng" : "56.27291"
    }, {
      "geonameid" : "292672",
      "name" : "Sharjah",
      "translatedname" : "Sharjah",
      "lat" : "25.33737",
      "lng" : "55.41206"
    }, {
      "geonameid" : "292688",
      "name" : "Ar Ruways",
      "translatedname" : "Ar Ruways",
      "lat" : "24.11028",
      "lng" : "52.73056"
    }, {
      "geonameid" : "292878",
      "name" : "Al Fujayrah",
      "translatedname" : "Al Fujayrah",
      "lat" : "25.11641",
      "lng" : "56.34141"
    }, {
      "geonameid" : "292913",
      "name" : "Al Ain",
      "translatedname" : "Al Ain",
      "lat" : "24.19167",
      "lng" : "55.76056"
    }, {
      "geonameid" : "292932",
      "name" : "Ajman",
      "translatedname" : "Ajman",
      "lat" : "25.41111",
      "lng" : "55.43504"
    }, {
      "geonameid" : "292953",
      "name" : "Adh Dhayd",
      "translatedname" : "Adh Dhayd",
      "lat" : "25.28812",
      "lng" : "55.88157"
    }, {
      "geonameid" : "292968",
      "name" : "Abu Dhabi",
      "translatedname" : "Abu Dhabi",
      "lat" : "24.46667",
      "lng" : "54.36667"
    } ],
    "AF" : [ {
      "geonameid" : "1120985",
      "name" : "Zaranj",
      "translatedname" : "Zaranj",
      "lat" : "30.95962",
      "lng" : "61.86037"
    }, {
      "geonameid" : "1123004",
      "name" : "Taloqan",
      "translatedname" : "Taloqan",
      "lat" : "36.73605",
      "lng" : "69.53451"
    }, {
      "geonameid" : "1125155",
      "name" : "Shīnḏanḏ",
      "translatedname" : "Shīnḏanḏ",
      "lat" : "33.30294",
      "lng" : "62.1474"
    }, {
      "geonameid" : "1125444",
      "name" : "Shibirghān",
      "translatedname" : "Shibirghān",
      "lat" : "36.66757",
      "lng" : "65.7529"
    }, {
      "geonameid" : "1125896",
      "name" : "Shahrak",
      "translatedname" : "Shahrak",
      "lat" : "34.10738",
      "lng" : "64.3052"
    }, {
      "geonameid" : "1127110",
      "name" : "Sar-e Pul",
      "translatedname" : "Sar-e Pul",
      "lat" : "36.21544",
      "lng" : "65.93249"
    }, {
      "geonameid" : "1127628",
      "name" : "Sang-e Chārak",
      "translatedname" : "Sang-e Chārak",
      "lat" : "35.84972",
      "lng" : "66.43694"
    }, {
      "geonameid" : "1127768",
      "name" : "Aībak",
      "translatedname" : "Aībak",
      "lat" : "36.26468",
      "lng" : "68.01551"
    }, {
      "geonameid" : "1128265",
      "name" : "Rustāq",
      "translatedname" : "Rustāq",
      "lat" : "37.12604",
      "lng" : "69.83045"
    }, {
      "geonameid" : "1129516",
      "name" : "Qarqīn",
      "translatedname" : "Qarqīn",
      "lat" : "37.41853",
      "lng" : "66.04358"
    }, {
      "geonameid" : "1129648",
      "name" : "Qarāwul",
      "translatedname" : "Qarāwul",
      "lat" : "37.21959",
      "lng" : "68.7802"
    }, {
      "geonameid" : "1130490",
      "name" : "Pul-e Khumrī",
      "translatedname" : "Pul-e Khumrī",
      "lat" : "35.94458",
      "lng" : "68.71512"
    }, {
      "geonameid" : "1131316",
      "name" : "Paghmān",
      "translatedname" : "Paghmān",
      "lat" : "34.58787",
      "lng" : "68.95091"
    }, {
      "geonameid" : "1132495",
      "name" : "Nahrīn",
      "translatedname" : "Nahrīn",
      "lat" : "36.0649",
      "lng" : "69.13343"
    }, {
      "geonameid" : "1133453",
      "name" : "Maymana",
      "translatedname" : "Maymana",
      "lat" : "35.92139",
      "lng" : "64.78361"
    }, {
      "geonameid" : "1133574",
      "name" : "Mehtar Lām",
      "translatedname" : "Mehtar Lām",
      "lat" : "34.67139",
      "lng" : "70.20944"
    }, {
      "geonameid" : "1133616",
      "name" : "Mazār-e Sharīf",
      "translatedname" : "Mazār-e Sharīf",
      "lat" : "36.70904",
      "lng" : "67.11087"
    }, {
      "geonameid" : "1134720",
      "name" : "Lashkar Gāh",
      "translatedname" : "Lashkar Gāh",
      "lat" : "31.59382",
      "lng" : "64.37161"
    }, {
      "geonameid" : "1135158",
      "name" : "Kushk",
      "translatedname" : "Kushk",
      "lat" : "33.29565",
      "lng" : "61.95221"
    }, {
      "geonameid" : "1135689",
      "name" : "Kunduz",
      "translatedname" : "Kunduz",
      "lat" : "36.72896",
      "lng" : "68.857"
    }, {
      "geonameid" : "1136469",
      "name" : "Khōst",
      "translatedname" : "Khōst",
      "lat" : "33.33951",
      "lng" : "69.92041"
    }, {
      "geonameid" : "1136575",
      "name" : "Khulm",
      "translatedname" : "Khulm",
      "lat" : "36.69736",
      "lng" : "67.69826"
    }, {
      "geonameid" : "1136863",
      "name" : "Khāsh",
      "translatedname" : "Khāsh",
      "lat" : "31.52919",
      "lng" : "62.79055"
    }, {
      "geonameid" : "1137168",
      "name" : "Khanabad",
      "translatedname" : "Khanabad",
      "lat" : "36.6825",
      "lng" : "69.11556"
    }, {
      "geonameid" : "1137807",
      "name" : "Karukh",
      "translatedname" : "Karukh",
      "lat" : "34.48108",
      "lng" : "62.5863"
    }, {
      "geonameid" : "1138336",
      "name" : "Kandahār",
      "translatedname" : "Kandahār",
      "lat" : "31.61332",
      "lng" : "65.71013"
    }, {
      "geonameid" : "1138958",
      "name" : "Kabul",
      "translatedname" : "Kabul",
      "lat" : "34.52813",
      "lng" : "69.17233"
    }, {
      "geonameid" : "1139715",
      "name" : "Jalālābād",
      "translatedname" : "Jalālābād",
      "lat" : "34.42647",
      "lng" : "70.45153"
    }, {
      "geonameid" : "1139807",
      "name" : "Jabal os Saraj",
      "translatedname" : "Jabal os Saraj",
      "lat" : "35.11833",
      "lng" : "69.23778"
    }, {
      "geonameid" : "1140026",
      "name" : "Herāt",
      "translatedname" : "Herāt",
      "lat" : "34.34817",
      "lng" : "62.19967"
    }, {
      "geonameid" : "1141089",
      "name" : "Ghormach",
      "translatedname" : "Ghormach",
      "lat" : "35.73062",
      "lng" : "63.78264"
    }, {
      "geonameid" : "1141269",
      "name" : "Ghazni",
      "translatedname" : "Ghazni",
      "lat" : "33.55391",
      "lng" : "68.42096"
    }, {
      "geonameid" : "1141540",
      "name" : "Gereshk",
      "translatedname" : "Gereshk",
      "lat" : "31.82089",
      "lng" : "64.57005"
    }, {
      "geonameid" : "1141857",
      "name" : "Gardēz",
      "translatedname" : "Gardēz",
      "lat" : "33.59744",
      "lng" : "69.22592"
    }, {
      "geonameid" : "1142170",
      "name" : "Fayzabad",
      "translatedname" : "Fayzabad",
      "lat" : "37.11664",
      "lng" : "70.58002"
    }, {
      "geonameid" : "1142264",
      "name" : "Farah",
      "translatedname" : "Farah",
      "lat" : "32.37451",
      "lng" : "62.11638"
    }, {
      "geonameid" : "1142404",
      "name" : "Kafir Qala",
      "translatedname" : "Kafir Qala",
      "lat" : "34.66667",
      "lng" : "61.06667"
    }, {
      "geonameid" : "1145352",
      "name" : "Charikar",
      "translatedname" : "Charikar",
      "lat" : "35.01361",
      "lng" : "69.17139"
    }, {
      "geonameid" : "1147066",
      "name" : "Barakī Barak",
      "translatedname" : "Barakī Barak",
      "lat" : "33.96744",
      "lng" : "68.9492"
    }, {
      "geonameid" : "1147242",
      "name" : "Bāmyān",
      "translatedname" : "Bāmyān",
      "lat" : "34.82156",
      "lng" : "67.82734"
    }, {
      "geonameid" : "1147290",
      "name" : "Balkh",
      "translatedname" : "Balkh",
      "lat" : "36.75635",
      "lng" : "66.8972"
    }, {
      "geonameid" : "1147540",
      "name" : "Baghlān",
      "translatedname" : "Baghlān",
      "lat" : "36.13068",
      "lng" : "68.70829"
    }, {
      "geonameid" : "1148106",
      "name" : "Ārt Khwājah",
      "translatedname" : "Ārt Khwājah",
      "lat" : "37.08571",
      "lng" : "69.47958"
    }, {
      "geonameid" : "1148205",
      "name" : "Āsmār",
      "translatedname" : "Āsmār",
      "lat" : "35.03333",
      "lng" : "71.35809"
    }, {
      "geonameid" : "1148311",
      "name" : "Asadābād",
      "translatedname" : "Asadābād",
      "lat" : "34.87311",
      "lng" : "71.14697"
    }, {
      "geonameid" : "1148658",
      "name" : "Andkhōy",
      "translatedname" : "Andkhōy",
      "lat" : "36.95293",
      "lng" : "65.12376"
    }, {
      "geonameid" : "1429434",
      "name" : "Bāzārak",
      "translatedname" : "Bāzārak",
      "lat" : "35.31292",
      "lng" : "69.51519"
    }, {
      "geonameid" : "1469706",
      "name" : "Markaz-e Woluswalī-ye Āchīn",
      "translatedname" : "Markaz-e Woluswalī-ye Āchīn",
      "lat" : "34.12583",
      "lng" : "70.70778"
    } ],
    "AG" : [ {
      "geonameid" : "3576022",
      "name" : "Saint John’s",
      "translatedname" : "Saint John’s",
      "lat" : "17.11717",
      "lng" : "-61.84573"
    } ],
    "AI" : [ {
      "geonameid" : "3573374",
      "name" : "The Valley",
      "translatedname" : "The Valley",
      "lat" : "18.21704",
      "lng" : "-63.05783"
    } ],
    "AL" : [ {
      "geonameid" : "363243",
      "name" : "Sarandë",
      "translatedname" : "Sarandë",
      "lat" : "39.87556",
      "lng" : "20.00528"
    }, {
      "geonameid" : "782661",
      "name" : "Kukës",
      "translatedname" : "Kukës",
      "lat" : "42.07694",
      "lng" : "20.42194"
    }, {
      "geonameid" : "782756",
      "name" : "Korçë",
      "translatedname" : "Korçë",
      "lat" : "40.61861",
      "lng" : "20.78083"
    }, {
      "geonameid" : "783148",
      "name" : "Gjirokastër",
      "translatedname" : "Gjirokastër",
      "lat" : "40.07583",
      "lng" : "20.13889"
    }, {
      "geonameid" : "783263",
      "name" : "Elbasan",
      "translatedname" : "Elbasan",
      "lat" : "41.1125",
      "lng" : "20.08222"
    }, {
      "geonameid" : "783493",
      "name" : "Burrel",
      "translatedname" : "Burrel",
      "lat" : "41.61028",
      "lng" : "20.00889"
    }, {
      "geonameid" : "3183719",
      "name" : "Vlorë",
      "translatedname" : "Vlorë",
      "lat" : "40.46667",
      "lng" : "19.48972"
    }, {
      "geonameid" : "3183875",
      "name" : "Tirana",
      "translatedname" : "Tirana",
      "lat" : "41.3275",
      "lng" : "19.81889"
    }, {
      "geonameid" : "3184081",
      "name" : "Shkodër",
      "translatedname" : "Shkodër",
      "lat" : "42.06828",
      "lng" : "19.51258"
    }, {
      "geonameid" : "3184517",
      "name" : "Patos Fshat",
      "translatedname" : "Patos Fshat",
      "lat" : "40.64278",
      "lng" : "19.65083"
    }, {
      "geonameid" : "3184862",
      "name" : "Lushnjë",
      "translatedname" : "Lushnjë",
      "lat" : "40.94194",
      "lng" : "19.705"
    }, {
      "geonameid" : "3184935",
      "name" : "Lezhë",
      "translatedname" : "Lezhë",
      "lat" : "41.78361",
      "lng" : "19.64361"
    }, {
      "geonameid" : "3185012",
      "name" : "Laç",
      "translatedname" : "Laç",
      "lat" : "41.63556",
      "lng" : "19.71306"
    }, {
      "geonameid" : "3185060",
      "name" : "Kuçovë",
      "translatedname" : "Kuçovë",
      "lat" : "40.80028",
      "lng" : "19.91667"
    }, {
      "geonameid" : "3185082",
      "name" : "Krujë",
      "translatedname" : "Krujë",
      "lat" : "41.50917",
      "lng" : "19.79278"
    }, {
      "geonameid" : "3185211",
      "name" : "Kavajë",
      "translatedname" : "Kavajë",
      "lat" : "41.18556",
      "lng" : "19.55694"
    }, {
      "geonameid" : "3185670",
      "name" : "Fier-Çifçi",
      "translatedname" : "Fier-Çifçi",
      "lat" : "40.71667",
      "lng" : "19.56667"
    }, {
      "geonameid" : "3185672",
      "name" : "Fier",
      "translatedname" : "Fier",
      "lat" : "40.72389",
      "lng" : "19.55611"
    }, {
      "geonameid" : "3185728",
      "name" : "Durrës",
      "translatedname" : "Durrës",
      "lat" : "41.32306",
      "lng" : "19.44139"
    }, {
      "geonameid" : "3186084",
      "name" : "Berat",
      "translatedname" : "Berat",
      "lat" : "40.70583",
      "lng" : "19.95222"
    } ],
    "AM" : [ {
      "geonameid" : "174875",
      "name" : "Kapan",
      "translatedname" : "Kapan",
      "lat" : "39.20754",
      "lng" : "46.40576"
    }, {
      "geonameid" : "174895",
      "name" : "Goris",
      "translatedname" : "Goris",
      "lat" : "39.51288",
      "lng" : "46.33816"
    }, {
      "geonameid" : "174972",
      "name" : "Hats’avan",
      "translatedname" : "Hats’avan",
      "lat" : "39.46405",
      "lng" : "45.97047"
    }, {
      "geonameid" : "174979",
      "name" : "Artashat",
      "translatedname" : "Artashat",
      "lat" : "39.96144",
      "lng" : "44.54447"
    }, {
      "geonameid" : "174991",
      "name" : "Ararat",
      "translatedname" : "Ararat",
      "lat" : "39.83166",
      "lng" : "44.70489"
    }, {
      "geonameid" : "616052",
      "name" : "Yerevan",
      "translatedname" : "Yerevan",
      "lat" : "40.18111",
      "lng" : "44.51361"
    }, {
      "geonameid" : "616062",
      "name" : "Ejmiatsin",
      "translatedname" : "Ejmiatsin",
      "lat" : "40.16557",
      "lng" : "44.29462"
    }, {
      "geonameid" : "616199",
      "name" : "Spitak",
      "translatedname" : "Spitak",
      "lat" : "40.8322",
      "lng" : "44.2673"
    }, {
      "geonameid" : "616250",
      "name" : "Sevan",
      "translatedname" : "Sevan",
      "lat" : "40.5484",
      "lng" : "44.94868"
    }, {
      "geonameid" : "616435",
      "name" : "Masis",
      "translatedname" : "Masis",
      "lat" : "40.06762",
      "lng" : "44.43591"
    }, {
      "geonameid" : "616530",
      "name" : "Vanadzor",
      "translatedname" : "Vanadzor",
      "lat" : "40.80456",
      "lng" : "44.4939"
    }, {
      "geonameid" : "616599",
      "name" : "Gavarr",
      "translatedname" : "Gavarr",
      "lat" : "40.35398",
      "lng" : "45.12386"
    }, {
      "geonameid" : "616629",
      "name" : "Hrazdan",
      "translatedname" : "Hrazdan",
      "lat" : "40.49748",
      "lng" : "44.7662"
    }, {
      "geonameid" : "616631",
      "name" : "Armavir",
      "translatedname" : "Armavir",
      "lat" : "40.15446",
      "lng" : "44.03815"
    }, {
      "geonameid" : "616635",
      "name" : "Gyumri",
      "translatedname" : "Gyumri",
      "lat" : "40.7942",
      "lng" : "43.84528"
    }, {
      "geonameid" : "616877",
      "name" : "Ashtarak",
      "translatedname" : "Ashtarak",
      "lat" : "40.2991",
      "lng" : "44.36204"
    }, {
      "geonameid" : "617026",
      "name" : "Abovyan",
      "translatedname" : "Abovyan",
      "lat" : "40.26741",
      "lng" : "44.62656"
    } ],
    "AO" : [ {
      "geonameid" : "145531",
      "name" : "Saurimo",
      "translatedname" : "Saurimo",
      "lat" : "-9.66078",
      "lng" : "20.39155"
    }, {
      "geonameid" : "145724",
      "name" : "Lucapa",
      "translatedname" : "Lucapa",
      "lat" : "-8.41915",
      "lng" : "20.74466"
    }, {
      "geonameid" : "876177",
      "name" : "Luau",
      "translatedname" : "Luau",
      "lat" : "-10.70727",
      "lng" : "22.22466"
    }, {
      "geonameid" : "2236568",
      "name" : "Uíge",
      "translatedname" : "Uíge",
      "lat" : "-7.60874",
      "lng" : "15.06131"
    }, {
      "geonameid" : "2236967",
      "name" : "Soio",
      "translatedname" : "Soio",
      "lat" : "-6.1349",
      "lng" : "12.36894"
    }, {
      "geonameid" : "2239001",
      "name" : "Nzeto",
      "translatedname" : "Nzeto",
      "lat" : "-7.23116",
      "lng" : "12.8666"
    }, {
      "geonameid" : "2239076",
      "name" : "N’dalatando",
      "translatedname" : "N’dalatando",
      "lat" : "-9.29782",
      "lng" : "14.91162"
    }, {
      "geonameid" : "2239520",
      "name" : "Mbanza Congo",
      "translatedname" : "Mbanza Congo",
      "lat" : "-6.26703",
      "lng" : "14.2401"
    }, {
      "geonameid" : "2239862",
      "name" : "Malanje",
      "translatedname" : "Malanje",
      "lat" : "-9.54015",
      "lng" : "16.34096"
    }, {
      "geonameid" : "2240449",
      "name" : "Luanda",
      "translatedname" : "Luanda",
      "lat" : "-8.83682",
      "lng" : "13.23432"
    }, {
      "geonameid" : "2242001",
      "name" : "Caxito",
      "translatedname" : "Caxito",
      "lat" : "-8.57848",
      "lng" : "13.66425"
    }, {
      "geonameid" : "2243271",
      "name" : "Cabinda",
      "translatedname" : "Cabinda",
      "lat" : "-5.55",
      "lng" : "12.2"
    }, {
      "geonameid" : "3346015",
      "name" : "Sumbe",
      "translatedname" : "Sumbe",
      "lat" : "-11.20605",
      "lng" : "13.84371"
    }, {
      "geonameid" : "3347019",
      "name" : "Moçâmedes",
      "translatedname" : "Moçâmedes",
      "lat" : "-15.19611",
      "lng" : "12.15222"
    }, {
      "geonameid" : "3347353",
      "name" : "Menongue",
      "translatedname" : "Menongue",
      "lat" : "-14.6585",
      "lng" : "17.69099"
    }, {
      "geonameid" : "3347719",
      "name" : "Luena",
      "translatedname" : "Luena",
      "lat" : "-11.78333",
      "lng" : "19.91667"
    }, {
      "geonameid" : "3347762",
      "name" : "Lubango",
      "translatedname" : "Lubango",
      "lat" : "-14.91717",
      "lng" : "13.4925"
    }, {
      "geonameid" : "3347853",
      "name" : "Longonjo",
      "translatedname" : "Longonjo",
      "lat" : "-12.90667",
      "lng" : "15.25333"
    }, {
      "geonameid" : "3347939",
      "name" : "Lobito",
      "translatedname" : "Lobito",
      "lat" : "-12.3644",
      "lng" : "13.53601"
    }, {
      "geonameid" : "3348078",
      "name" : "Cuito",
      "translatedname" : "Cuito",
      "lat" : "-12.38333",
      "lng" : "16.93333"
    }, {
      "geonameid" : "3348313",
      "name" : "Huambo",
      "translatedname" : "Huambo",
      "lat" : "-12.77611",
      "lng" : "15.73917"
    }, {
      "geonameid" : "3350246",
      "name" : "Catumbela",
      "translatedname" : "Catumbela",
      "lat" : "-12.43139",
      "lng" : "13.54722"
    }, {
      "geonameid" : "3350372",
      "name" : "Catabola",
      "translatedname" : "Catabola",
      "lat" : "-12.15",
      "lng" : "17.28333"
    }, {
      "geonameid" : "3351014",
      "name" : "Camacupa",
      "translatedname" : "Camacupa",
      "lat" : "-12.01667",
      "lng" : "17.48333"
    }, {
      "geonameid" : "3351024",
      "name" : "Caluquembe",
      "translatedname" : "Caluquembe",
      "lat" : "-13.78333",
      "lng" : "14.68333"
    }, {
      "geonameid" : "3351500",
      "name" : "Caála",
      "translatedname" : "Caála",
      "lat" : "-12.8525",
      "lng" : "15.56056"
    }, {
      "geonameid" : "3351663",
      "name" : "Benguela",
      "translatedname" : "Benguela",
      "lat" : "-12.57626",
      "lng" : "13.40547"
    } ],
    "AQ" : [ {
      "geonameid" : "6696480",
      "name" : "McMurdo Station",
      "translatedname" : "McMurdo Station",
      "lat" : "-77.846",
      "lng" : "166.676"
    } ],
    "AR" : [ {
      "geonameid" : "3427213",
      "name" : "Zárate",
      "translatedname" : "Zárate",
      "lat" : "-34.09814",
      "lng" : "-59.02858"
    }, {
      "geonameid" : "3427388",
      "name" : "Villa Ocampo",
      "translatedname" : "Villa Ocampo",
      "lat" : "-28.48752",
      "lng" : "-59.35515"
    }, {
      "geonameid" : "3427408",
      "name" : "Villa Lugano",
      "translatedname" : "Villa Lugano",
      "lat" : "-34.67907",
      "lng" : "-58.47262"
    }, {
      "geonameid" : "3427428",
      "name" : "Villaguay",
      "translatedname" : "Villaguay",
      "lat" : "-31.8653",
      "lng" : "-59.02689"
    }, {
      "geonameid" : "3427431",
      "name" : "Villa Gesell",
      "translatedname" : "Villa Gesell",
      "lat" : "-37.26394",
      "lng" : "-56.97304"
    }, {
      "geonameid" : "3427761",
      "name" : "Tigre",
      "translatedname" : "Tigre",
      "lat" : "-34.42603",
      "lng" : "-58.57962"
    }, {
      "geonameid" : "3427833",
      "name" : "Tandil",
      "translatedname" : "Tandil",
      "lat" : "-37.32167",
      "lng" : "-59.13316"
    }, {
      "geonameid" : "3428068",
      "name" : "San Vicente",
      "translatedname" : "San Vicente",
      "lat" : "-26.61667",
      "lng" : "-54.13333"
    }, {
      "geonameid" : "3428071",
      "name" : "Santo Tomé",
      "translatedname" : "Santo Tomé - Corrientes",
      "lat" : "-28.54939",
      "lng" : "-56.04077"
    }, {
      "geonameid" : "3428359",
      "name" : "Santa Elena",
      "translatedname" : "Santa Elena",
      "lat" : "-30.94768",
      "lng" : "-59.78696"
    }, {
      "geonameid" : "3428577",
      "name" : "San Pedro",
      "translatedname" : "San Pedro - Misiones",
      "lat" : "-26.62207",
      "lng" : "-54.10842"
    }, {
      "geonameid" : "3428708",
      "name" : "San Luis del Palmar",
      "translatedname" : "San Luis del Palmar",
      "lat" : "-27.5079",
      "lng" : "-58.55454"
    }, {
      "geonameid" : "3428759",
      "name" : "San Lorenzo",
      "translatedname" : "San Lorenzo",
      "lat" : "-28.13306",
      "lng" : "-58.76733"
    }, {
      "geonameid" : "3428975",
      "name" : "San Javier",
      "translatedname" : "San Javier",
      "lat" : "-30.57781",
      "lng" : "-59.9317"
    }, {
      "geonameid" : "3429403",
      "name" : "Saladas",
      "translatedname" : "Saladas",
      "lat" : "-28.25384",
      "lng" : "-58.62591"
    }, {
      "geonameid" : "3429576",
      "name" : "Retiro",
      "translatedname" : "Retiro",
      "lat" : "-34.58333",
      "lng" : "-58.38333"
    }, {
      "geonameid" : "3429577",
      "name" : "Resistencia",
      "translatedname" : "Resistencia",
      "lat" : "-27.46056",
      "lng" : "-58.98389"
    }, {
      "geonameid" : "3429594",
      "name" : "Reconquista",
      "translatedname" : "Reconquista",
      "lat" : "-29.15",
      "lng" : "-59.65"
    }, {
      "geonameid" : "3429652",
      "name" : "Quilmes",
      "translatedname" : "Quilmes",
      "lat" : "-34.72418",
      "lng" : "-58.25265"
    }, {
      "geonameid" : "3429732",
      "name" : "Puerto Rico",
      "translatedname" : "Puerto Rico",
      "lat" : "-26.79598",
      "lng" : "-55.02402"
    }, {
      "geonameid" : "3429777",
      "name" : "Puerto Iguazú",
      "translatedname" : "Puerto Iguazú",
      "lat" : "-25.59912",
      "lng" : "-54.57355"
    }, {
      "geonameid" : "3429786",
      "name" : "Puerto Esperanza",
      "translatedname" : "Puerto Esperanza",
      "lat" : "-26.01517",
      "lng" : "-54.67306"
    }, {
      "geonameid" : "3429790",
      "name" : "Puerto Eldorado",
      "translatedname" : "Puerto Eldorado",
      "lat" : "-26.40842",
      "lng" : "-54.69463"
    }, {
      "geonameid" : "3429886",
      "name" : "Posadas",
      "translatedname" : "Posadas",
      "lat" : "-27.36708",
      "lng" : "-55.89608"
    }, {
      "geonameid" : "3429902",
      "name" : "Pontevedra",
      "translatedname" : "Pontevedra",
      "lat" : "-34.74974",
      "lng" : "-58.68696"
    }, {
      "geonameid" : "3429949",
      "name" : "Pirané",
      "translatedname" : "Pirané",
      "lat" : "-25.73239",
      "lng" : "-59.10879"
    }, {
      "geonameid" : "3430104",
      "name" : "Paso de los Libres",
      "translatedname" : "Paso de los Libres",
      "lat" : "-29.71311",
      "lng" : "-57.08991"
    }, {
      "geonameid" : "3430340",
      "name" : "Oberá",
      "translatedname" : "Oberá",
      "lat" : "-27.48706",
      "lng" : "-55.11994"
    }, {
      "geonameid" : "3430443",
      "name" : "Necochea",
      "translatedname" : "Necochea",
      "lat" : "-38.54726",
      "lng" : "-58.73675"
    }, {
      "geonameid" : "3430545",
      "name" : "Morón",
      "translatedname" : "Morón",
      "lat" : "-34.65344",
      "lng" : "-58.61975"
    }, {
      "geonameid" : "3430598",
      "name" : "Monte Caseros",
      "translatedname" : "Monte Caseros",
      "lat" : "-30.25359",
      "lng" : "-57.63626"
    }, {
      "geonameid" : "3430601",
      "name" : "Montecarlo",
      "translatedname" : "Montecarlo",
      "lat" : "-26.5662",
      "lng" : "-54.757"
    }, {
      "geonameid" : "3430708",
      "name" : "Mercedes",
      "translatedname" : "Mercedes - Buenos Aires",
      "lat" : "-34.65146",
      "lng" : "-59.43068"
    }, {
      "geonameid" : "3430709",
      "name" : "Mercedes",
      "translatedname" : "Mercedes - Corrientes",
      "lat" : "-29.18186",
      "lng" : "-58.07895"
    }, {
      "geonameid" : "3430863",
      "name" : "Mar del Plata",
      "translatedname" : "Mar del Plata",
      "lat" : "-38.00228",
      "lng" : "-57.55754"
    }, {
      "geonameid" : "3430988",
      "name" : "Luján",
      "translatedname" : "Luján",
      "lat" : "-34.57028",
      "lng" : "-59.105"
    }, {
      "geonameid" : "3432043",
      "name" : "La Plata",
      "translatedname" : "La Plata",
      "lat" : "-34.92145",
      "lng" : "-57.95453"
    }, {
      "geonameid" : "3432079",
      "name" : "La Paz",
      "translatedname" : "La Paz",
      "lat" : "-30.74485",
      "lng" : "-59.64566"
    }, {
      "geonameid" : "3433349",
      "name" : "Jardín América",
      "translatedname" : "Jardín América",
      "lat" : "-27.04346",
      "lng" : "-55.22698"
    }, {
      "geonameid" : "3433658",
      "name" : "Gualeguaychú",
      "translatedname" : "Gualeguaychú",
      "lat" : "-33.00938",
      "lng" : "-58.51722"
    }, {
      "geonameid" : "3433663",
      "name" : "Gualeguay",
      "translatedname" : "Gualeguay",
      "lat" : "-33.14156",
      "lng" : "-59.30966"
    }, {
      "geonameid" : "3433715",
      "name" : "Goya",
      "translatedname" : "Goya",
      "lat" : "-29.14003",
      "lng" : "-59.26256"
    }, {
      "geonameid" : "3433753",
      "name" : "Gobernador Ingeniero Valentín Virasoro",
      "translatedname" : "Gobernador Ingeniero Valentín Virasoro",
      "lat" : "-28.05",
      "lng" : "-56.03333"
    }, {
      "geonameid" : "3433803",
      "name" : "General José de San Martín",
      "translatedname" : "General José de San Martín",
      "lat" : "-26.53743",
      "lng" : "-59.34158"
    }, {
      "geonameid" : "3433836",
      "name" : "Garupá",
      "translatedname" : "Garupá",
      "lat" : "-27.48171",
      "lng" : "-55.82921"
    }, {
      "geonameid" : "3433899",
      "name" : "Formosa",
      "translatedname" : "Formosa",
      "lat" : "-26.17753",
      "lng" : "-58.17814"
    }, {
      "geonameid" : "3433901",
      "name" : "Fontana",
      "translatedname" : "Fontana",
      "lat" : "-27.41813",
      "lng" : "-59.02392"
    }, {
      "geonameid" : "3433956",
      "name" : "Federal",
      "translatedname" : "Federal",
      "lat" : "-30.95465",
      "lng" : "-58.78326"
    }, {
      "geonameid" : "3434095",
      "name" : "Esquina",
      "translatedname" : "Esquina",
      "lat" : "-30.01444",
      "lng" : "-59.52719"
    }, {
      "geonameid" : "3434291",
      "name" : "El Soberbio",
      "translatedname" : "El Soberbio",
      "lat" : "-27.29846",
      "lng" : "-54.19877"
    }, {
      "geonameid" : "3435038",
      "name" : "Dolores",
      "translatedname" : "Dolores",
      "lat" : "-36.31322",
      "lng" : "-57.67918"
    }, {
      "geonameid" : "3435103",
      "name" : "Curuzú Cuatiá",
      "translatedname" : "Curuzú Cuatiá",
      "lat" : "-29.79171",
      "lng" : "-58.0546"
    }, {
      "geonameid" : "3435217",
      "name" : "Corrientes",
      "translatedname" : "Corrientes",
      "lat" : "-27.4806",
      "lng" : "-58.8341"
    }, {
      "geonameid" : "3435261",
      "name" : "Concordia",
      "translatedname" : "Concordia",
      "lat" : "-31.39296",
      "lng" : "-58.02089"
    }, {
      "geonameid" : "3435264",
      "name" : "Concepción del Uruguay",
      "translatedname" : "Concepción del Uruguay",
      "lat" : "-32.48249",
      "lng" : "-58.23722"
    }, {
      "geonameid" : "3435356",
      "name" : "Colegiales",
      "translatedname" : "Colegiales",
      "lat" : "-34.57365",
      "lng" : "-58.44924"
    }, {
      "geonameid" : "3435486",
      "name" : "Chajarí",
      "translatedname" : "Chajarí",
      "lat" : "-30.75048",
      "lng" : "-57.97962"
    }, {
      "geonameid" : "3435810",
      "name" : "Campana",
      "translatedname" : "Campana",
      "lat" : "-34.16874",
      "lng" : "-58.95914"
    }, {
      "geonameid" : "3435910",
      "name" : "Buenos Aires",
      "translatedname" : "Buenos Aires",
      "lat" : "-34.61315",
      "lng" : "-58.37723"
    }, {
      "geonameid" : "3436124",
      "name" : "Barranqueras",
      "translatedname" : "Barranqueras",
      "lat" : "-27.48299",
      "lng" : "-58.93579"
    }, {
      "geonameid" : "3436199",
      "name" : "Azul",
      "translatedname" : "Azul",
      "lat" : "-36.77698",
      "lng" : "-59.85854"
    }, {
      "geonameid" : "3436230",
      "name" : "Avellaneda",
      "translatedname" : "Avellaneda",
      "lat" : "-29.11761",
      "lng" : "-59.65834"
    }, {
      "geonameid" : "3436287",
      "name" : "Aristóbulo del Valle",
      "translatedname" : "Aristóbulo del Valle",
      "lat" : "-27.09625",
      "lng" : "-54.89626"
    }, {
      "geonameid" : "3832132",
      "name" : "Zapala",
      "translatedname" : "Zapala",
      "lat" : "-38.89916",
      "lng" : "-70.05442"
    }, {
      "geonameid" : "3832260",
      "name" : "Yerba Buena",
      "translatedname" : "Yerba Buena",
      "lat" : "-26.81667",
      "lng" : "-65.31667"
    }, {
      "geonameid" : "3832647",
      "name" : "Villa Regina",
      "translatedname" : "Villa Regina",
      "lat" : "-39.1",
      "lng" : "-67.06667"
    }, {
      "geonameid" : "3832653",
      "name" : "Villa Paula de Sarmiento",
      "translatedname" : "Villa Paula de Sarmiento",
      "lat" : "-31.4933",
      "lng" : "-68.53838"
    }, {
      "geonameid" : "3832662",
      "name" : "Villa Nueva",
      "translatedname" : "Villa Nueva",
      "lat" : "-32.43293",
      "lng" : "-63.24763"
    }, {
      "geonameid" : "3832694",
      "name" : "Villa María",
      "translatedname" : "Villa María",
      "lat" : "-32.40751",
      "lng" : "-63.24016"
    }, {
      "geonameid" : "3832756",
      "name" : "Villa Dolores",
      "translatedname" : "Villa Dolores",
      "lat" : "-31.94585",
      "lng" : "-65.18958"
    }, {
      "geonameid" : "3832778",
      "name" : "Villa Constitución",
      "translatedname" : "Villa Constitución",
      "lat" : "-33.22778",
      "lng" : "-60.3297"
    }, {
      "geonameid" : "3832791",
      "name" : "Villa Carlos Paz",
      "translatedname" : "Villa Carlos Paz",
      "lat" : "-31.42414",
      "lng" : "-64.49778"
    }, {
      "geonameid" : "3832811",
      "name" : "Villa Ángela",
      "translatedname" : "Villa Ángela",
      "lat" : "-27.57383",
      "lng" : "-60.71526"
    }, {
      "geonameid" : "3832815",
      "name" : "Villa Allende",
      "translatedname" : "Villa Allende",
      "lat" : "-31.29458",
      "lng" : "-64.29538"
    }, {
      "geonameid" : "3832899",
      "name" : "Viedma",
      "translatedname" : "Viedma",
      "lat" : "-40.81345",
      "lng" : "-62.99668"
    }, {
      "geonameid" : "3832934",
      "name" : "Victoria",
      "translatedname" : "Victoria",
      "lat" : "-32.61841",
      "lng" : "-60.15478"
    }, {
      "geonameid" : "3833027",
      "name" : "Vera",
      "translatedname" : "Vera",
      "lat" : "-29.4593",
      "lng" : "-60.21261"
    }, {
      "geonameid" : "3833062",
      "name" : "Venado Tuerto",
      "translatedname" : "Venado Tuerto",
      "lat" : "-33.74556",
      "lng" : "-61.96884"
    }, {
      "geonameid" : "3833112",
      "name" : "Veinticinco de Mayo",
      "translatedname" : "Veinticinco de Mayo",
      "lat" : "-35.4323",
      "lng" : "-60.17271"
    }, {
      "geonameid" : "3833367",
      "name" : "Ushuaia",
      "translatedname" : "Ushuaia",
      "lat" : "-54.8",
      "lng" : "-68.3"
    }, {
      "geonameid" : "3833412",
      "name" : "Unquillo",
      "translatedname" : "Unquillo",
      "lat" : "-31.23073",
      "lng" : "-64.31615"
    }, {
      "geonameid" : "3833794",
      "name" : "Tres Isletas",
      "translatedname" : "Tres Isletas",
      "lat" : "-26.34066",
      "lng" : "-60.43207"
    }, {
      "geonameid" : "3833859",
      "name" : "Tres Arroyos",
      "translatedname" : "Tres Arroyos",
      "lat" : "-38.37394",
      "lng" : "-60.27978"
    }, {
      "geonameid" : "3833883",
      "name" : "Trelew",
      "translatedname" : "Trelew",
      "lat" : "-43.24895",
      "lng" : "-65.30505"
    }, {
      "geonameid" : "3834502",
      "name" : "Termas de Río Hondo",
      "translatedname" : "Termas de Río Hondo",
      "lat" : "-27.49983",
      "lng" : "-64.86042"
    }, {
      "geonameid" : "3834601",
      "name" : "Tartagal",
      "translatedname" : "Tartagal",
      "lat" : "-22.51636",
      "lng" : "-63.80131"
    }, {
      "geonameid" : "3834813",
      "name" : "Tafí Viejo",
      "translatedname" : "Tafí Viejo",
      "lat" : "-26.73201",
      "lng" : "-65.25921"
    }, {
      "geonameid" : "3834971",
      "name" : "Sunchales",
      "translatedname" : "Sunchales",
      "lat" : "-30.94404",
      "lng" : "-61.56148"
    }, {
      "geonameid" : "3835793",
      "name" : "Santo Tomé",
      "translatedname" : "Santo Tomé - Santa Fe",
      "lat" : "-31.66274",
      "lng" : "-60.7653"
    }, {
      "geonameid" : "3835869",
      "name" : "Santiago del Estero",
      "translatedname" : "Santiago del Estero",
      "lat" : "-27.79511",
      "lng" : "-64.26149"
    }, {
      "geonameid" : "3835994",
      "name" : "Santa Rosa",
      "translatedname" : "Santa Rosa",
      "lat" : "-36.61667",
      "lng" : "-64.28333"
    }, {
      "geonameid" : "3836194",
      "name" : "Santa Lucía",
      "translatedname" : "Santa Lucía",
      "lat" : "-31.53987",
      "lng" : "-68.49503"
    }, {
      "geonameid" : "3836277",
      "name" : "Santa Fe de la Vera Cruz",
      "translatedname" : "Santa Fe de la Vera Cruz",
      "lat" : "-31.63333",
      "lng" : "-60.7"
    }, {
      "geonameid" : "3836564",
      "name" : "San Salvador de Jujuy",
      "translatedname" : "San Salvador de Jujuy",
      "lat" : "-24.19456",
      "lng" : "-65.29712"
    }, {
      "geonameid" : "3836620",
      "name" : "San Ramón de la Nueva Orán",
      "translatedname" : "San Ramón de la Nueva Orán",
      "lat" : "-23.13705",
      "lng" : "-64.32426"
    }, {
      "geonameid" : "3836669",
      "name" : "San Rafael",
      "translatedname" : "San Rafael",
      "lat" : "-34.61772",
      "lng" : "-68.33007"
    }, {
      "geonameid" : "3836772",
      "name" : "San Pedro",
      "translatedname" : "San Pedro - Jujuy",
      "lat" : "-24.23127",
      "lng" : "-64.86614"
    }, {
      "geonameid" : "3836846",
      "name" : "San Nicolás de los Arroyos",
      "translatedname" : "San Nicolás de los Arroyos",
      "lat" : "-33.33578",
      "lng" : "-60.22523"
    }, {
      "geonameid" : "3836873",
      "name" : "San Miguel de Tucumán",
      "translatedname" : "San Miguel de Tucumán",
      "lat" : "-26.82414",
      "lng" : "-65.2226"
    }, {
      "geonameid" : "3836951",
      "name" : "San Martín de los Andes",
      "translatedname" : "San Martín de los Andes",
      "lat" : "-40.16038",
      "lng" : "-71.34865"
    }, {
      "geonameid" : "3836992",
      "name" : "San Martín",
      "translatedname" : "San Martín",
      "lat" : "-33.08103",
      "lng" : "-68.46814"
    }, {
      "geonameid" : "3837056",
      "name" : "San Luis",
      "translatedname" : "San Luis",
      "lat" : "-33.29501",
      "lng" : "-66.33563"
    }, {
      "geonameid" : "3837124",
      "name" : "San Justo",
      "translatedname" : "San Justo",
      "lat" : "-30.78913",
      "lng" : "-60.59189"
    }, {
      "geonameid" : "3837213",
      "name" : "San Juan",
      "translatedname" : "San Juan",
      "lat" : "-31.5375",
      "lng" : "-68.53639"
    }, {
      "geonameid" : "3837240",
      "name" : "San José de Jáchal",
      "translatedname" : "San José de Jáchal",
      "lat" : "-30.24057",
      "lng" : "-68.74693"
    }, {
      "geonameid" : "3837441",
      "name" : "San Jorge",
      "translatedname" : "San Jorge",
      "lat" : "-31.89618",
      "lng" : "-61.85984"
    }, {
      "geonameid" : "3837675",
      "name" : "San Francisco",
      "translatedname" : "San Francisco",
      "lat" : "-31.42797",
      "lng" : "-62.08266"
    }, {
      "geonameid" : "3837702",
      "name" : "San Fernando del Valle de Catamarca",
      "translatedname" : "San Fernando del Valle de Catamarca",
      "lat" : "-28.46957",
      "lng" : "-65.78524"
    }, {
      "geonameid" : "3837980",
      "name" : "San Antonio Oeste",
      "translatedname" : "San Antonio Oeste",
      "lat" : "-40.73193",
      "lng" : "-64.94769"
    }, {
      "geonameid" : "3838233",
      "name" : "Salta",
      "translatedname" : "Salta",
      "lat" : "-24.7859",
      "lng" : "-65.41166"
    }, {
      "geonameid" : "3838506",
      "name" : "Rufino",
      "translatedname" : "Rufino",
      "lat" : "-34.26827",
      "lng" : "-62.71262"
    }, {
      "geonameid" : "3838583",
      "name" : "Rosario",
      "translatedname" : "Rosario",
      "lat" : "-32.94682",
      "lng" : "-60.63932"
    }, {
      "geonameid" : "3838793",
      "name" : "Río Tercero",
      "translatedname" : "Río Tercero",
      "lat" : "-32.17301",
      "lng" : "-64.11406"
    }, {
      "geonameid" : "3838797",
      "name" : "Río Segundo",
      "translatedname" : "Río Segundo",
      "lat" : "-31.6526",
      "lng" : "-63.9099"
    }, {
      "geonameid" : "3838859",
      "name" : "Río Gallegos",
      "translatedname" : "Río Gallegos",
      "lat" : "-51.62261",
      "lng" : "-69.21813"
    }, {
      "geonameid" : "3838874",
      "name" : "Río Cuarto",
      "translatedname" : "Río Cuarto",
      "lat" : "-33.13067",
      "lng" : "-64.34992"
    }, {
      "geonameid" : "3838902",
      "name" : "Río Ceballos",
      "translatedname" : "Río Ceballos",
      "lat" : "-31.16486",
      "lng" : "-64.32241"
    }, {
      "geonameid" : "3839307",
      "name" : "Rawson",
      "translatedname" : "Rawson",
      "lat" : "-43.30016",
      "lng" : "-65.10228"
    }, {
      "geonameid" : "3839479",
      "name" : "Rafaela",
      "translatedname" : "Rafaela",
      "lat" : "-31.25033",
      "lng" : "-61.4867"
    }, {
      "geonameid" : "3839490",
      "name" : "Quitilipi",
      "translatedname" : "Quitilipi",
      "lat" : "-26.86913",
      "lng" : "-60.21683"
    }, {
      "geonameid" : "3839982",
      "name" : "Punta Alta",
      "translatedname" : "Punta Alta",
      "lat" : "-38.87588",
      "lng" : "-62.07359"
    }, {
      "geonameid" : "3840092",
      "name" : "Puerto Madryn",
      "translatedname" : "Puerto Madryn",
      "lat" : "-42.7692",
      "lng" : "-65.03851"
    }, {
      "geonameid" : "3840300",
      "name" : "Presidencia Roque Sáenz Peña",
      "translatedname" : "Presidencia Roque Sáenz Peña",
      "lat" : "-26.78522",
      "lng" : "-60.43876"
    }, {
      "geonameid" : "3840860",
      "name" : "Pocito",
      "translatedname" : "Pocito",
      "lat" : "-31.68333",
      "lng" : "-68.58333"
    }, {
      "geonameid" : "3840885",
      "name" : "Plottier",
      "translatedname" : "Plottier",
      "lat" : "-38.96667",
      "lng" : "-68.23333"
    }, {
      "geonameid" : "3841490",
      "name" : "Pergamino",
      "translatedname" : "Pergamino",
      "lat" : "-33.88995",
      "lng" : "-60.57357"
    }, {
      "geonameid" : "3841500",
      "name" : "Pérez",
      "translatedname" : "Pérez",
      "lat" : "-32.99835",
      "lng" : "-60.76791"
    }, {
      "geonameid" : "3841956",
      "name" : "Paraná",
      "translatedname" : "Paraná",
      "lat" : "-31.73197",
      "lng" : "-60.5238"
    }, {
      "geonameid" : "3842190",
      "name" : "Palpalá",
      "translatedname" : "Palpalá",
      "lat" : "-24.25648",
      "lng" : "-65.21163"
    }, {
      "geonameid" : "3842670",
      "name" : "Olavarría",
      "translatedname" : "Olavarría",
      "lat" : "-36.89272",
      "lng" : "-60.32254"
    }, {
      "geonameid" : "3842881",
      "name" : "Nueve de Julio",
      "translatedname" : "Nueve de Julio",
      "lat" : "-35.44437",
      "lng" : "-60.88313"
    }, {
      "geonameid" : "3843123",
      "name" : "Neuquén",
      "translatedname" : "Neuquén",
      "lat" : "-38.95161",
      "lng" : "-68.0591"
    }, {
      "geonameid" : "3843619",
      "name" : "Morteros",
      "translatedname" : "Morteros",
      "lat" : "-30.71164",
      "lng" : "-61.99862"
    }, {
      "geonameid" : "3843803",
      "name" : "Monteros",
      "translatedname" : "Monteros",
      "lat" : "-27.16742",
      "lng" : "-65.49832"
    }, {
      "geonameid" : "3844421",
      "name" : "Mendoza",
      "translatedname" : "Mendoza",
      "lat" : "-32.89084",
      "lng" : "-68.82717"
    }, {
      "geonameid" : "3844899",
      "name" : "Marcos Juárez",
      "translatedname" : "Marcos Juárez",
      "lat" : "-32.6978",
      "lng" : "-62.10672"
    }, {
      "geonameid" : "3845330",
      "name" : "Machagai",
      "translatedname" : "Machagai",
      "lat" : "-26.92614",
      "lng" : "-60.04956"
    }, {
      "geonameid" : "3846864",
      "name" : "Lincoln",
      "translatedname" : "Lincoln",
      "lat" : "-34.86649",
      "lng" : "-61.5302"
    }, {
      "geonameid" : "3846915",
      "name" : "Libertador General San Martín",
      "translatedname" : "Libertador General San Martín",
      "lat" : "-23.80644",
      "lng" : "-64.78757"
    }, {
      "geonameid" : "3848687",
      "name" : "Las Breñas",
      "translatedname" : "Las Breñas",
      "lat" : "-27.08966",
      "lng" : "-61.08161"
    }, {
      "geonameid" : "3848950",
      "name" : "La Rioja",
      "translatedname" : "La Rioja",
      "lat" : "-29.41105",
      "lng" : "-66.85067"
    }, {
      "geonameid" : "3851331",
      "name" : "La Falda",
      "translatedname" : "La Falda",
      "lat" : "-31.08841",
      "lng" : "-64.48987"
    }, {
      "geonameid" : "3852374",
      "name" : "La Calera",
      "translatedname" : "La Calera",
      "lat" : "-31.34377",
      "lng" : "-64.33529"
    }, {
      "geonameid" : "3852468",
      "name" : "Laboulaye",
      "translatedname" : "Laboulaye",
      "lat" : "-34.12662",
      "lng" : "-63.39119"
    }, {
      "geonameid" : "3853354",
      "name" : "Junín",
      "translatedname" : "Junín",
      "lat" : "-34.58382",
      "lng" : "-60.94332"
    }, {
      "geonameid" : "3853491",
      "name" : "Joaquín V. González",
      "translatedname" : "Joaquín V. González",
      "lat" : "-25.08333",
      "lng" : "-64.18333"
    }, {
      "geonameid" : "3853510",
      "name" : "Jesús María",
      "translatedname" : "Jesús María",
      "lat" : "-30.98153",
      "lng" : "-64.09424"
    }, {
      "geonameid" : "3854895",
      "name" : "Granadero Baigorria",
      "translatedname" : "Granadero Baigorria",
      "lat" : "-32.85683",
      "lng" : "-60.71754"
    }, {
      "geonameid" : "3854985",
      "name" : "Gobernador Gálvez",
      "translatedname" : "Gobernador Gálvez",
      "lat" : "-33.03016",
      "lng" : "-60.64045"
    }, {
      "geonameid" : "3855065",
      "name" : "General Roca",
      "translatedname" : "General Roca",
      "lat" : "-39.03333",
      "lng" : "-67.58333"
    }, {
      "geonameid" : "3855074",
      "name" : "General Pinedo",
      "translatedname" : "General Pinedo",
      "lat" : "-27.31667",
      "lng" : "-61.28333"
    }, {
      "geonameid" : "3855075",
      "name" : "General Pico",
      "translatedname" : "General Pico",
      "lat" : "-35.65662",
      "lng" : "-63.75682"
    }, {
      "geonameid" : "3855116",
      "name" : "General Enrique Mosconi",
      "translatedname" : "General Enrique Mosconi",
      "lat" : "-22.59588",
      "lng" : "-63.81255"
    }, {
      "geonameid" : "3855244",
      "name" : "Gálvez",
      "translatedname" : "Gálvez",
      "lat" : "-32.02927",
      "lng" : "-61.22103"
    }, {
      "geonameid" : "3855554",
      "name" : "Firmat",
      "translatedname" : "Firmat",
      "lat" : "-33.45937",
      "lng" : "-61.4832"
    }, {
      "geonameid" : "3855666",
      "name" : "Famaillá",
      "translatedname" : "Famaillá",
      "lat" : "-27.05413",
      "lng" : "-65.40329"
    }, {
      "geonameid" : "3855974",
      "name" : "Esquel",
      "translatedname" : "Esquel",
      "lat" : "-42.91147",
      "lng" : "-71.31947"
    }, {
      "geonameid" : "3856022",
      "name" : "Esperanza",
      "translatedname" : "Esperanza",
      "lat" : "-31.4488",
      "lng" : "-60.93173"
    }, {
      "geonameid" : "3856231",
      "name" : "Embarcación",
      "translatedname" : "Embarcación",
      "lat" : "-23.20898",
      "lng" : "-64.09605"
    }, {
      "geonameid" : "3856235",
      "name" : "Embalse",
      "translatedname" : "Embalse",
      "lat" : "-32.18",
      "lng" : "-64.41809"
    }, {
      "geonameid" : "3858765",
      "name" : "El Bolsón",
      "translatedname" : "El Bolsón",
      "lat" : "-41.96051",
      "lng" : "-71.53336"
    }, {
      "geonameid" : "3859384",
      "name" : "Diamante",
      "translatedname" : "Diamante",
      "lat" : "-32.06641",
      "lng" : "-60.63836"
    }, {
      "geonameid" : "3859512",
      "name" : "Deán Funes",
      "translatedname" : "Deán Funes",
      "lat" : "-30.42036",
      "lng" : "-64.34984"
    }, {
      "geonameid" : "3859552",
      "name" : "Cutral-Có",
      "translatedname" : "Cutral-Có",
      "lat" : "-38.93424",
      "lng" : "-69.23052"
    }, {
      "geonameid" : "3859828",
      "name" : "Cruz del Eje",
      "translatedname" : "Cruz del Eje",
      "lat" : "-30.72644",
      "lng" : "-64.80387"
    }, {
      "geonameid" : "3859904",
      "name" : "Crespo",
      "translatedname" : "Crespo",
      "lat" : "-32.02873",
      "lng" : "-60.30658"
    }, {
      "geonameid" : "3859965",
      "name" : "Cosquín",
      "translatedname" : "Cosquín",
      "lat" : "-31.24508",
      "lng" : "-64.46563"
    }, {
      "geonameid" : "3860164",
      "name" : "Coronel Suárez",
      "translatedname" : "Coronel Suárez",
      "lat" : "-37.45467",
      "lng" : "-61.93343"
    }, {
      "geonameid" : "3860217",
      "name" : "Coronda",
      "translatedname" : "Coronda",
      "lat" : "-31.97263",
      "lng" : "-60.91982"
    }, {
      "geonameid" : "3860259",
      "name" : "Córdoba",
      "translatedname" : "Córdoba",
      "lat" : "-31.4135",
      "lng" : "-64.18105"
    }, {
      "geonameid" : "3860443",
      "name" : "Comodoro Rivadavia",
      "translatedname" : "Comodoro Rivadavia",
      "lat" : "-45.86414",
      "lng" : "-67.49656"
    }, {
      "geonameid" : "3861056",
      "name" : "Cipolletti",
      "translatedname" : "Cipolletti",
      "lat" : "-38.93392",
      "lng" : "-67.99032"
    }, {
      "geonameid" : "3861061",
      "name" : "Cinco Saltos",
      "translatedname" : "Cinco Saltos",
      "lat" : "-38.82224",
      "lng" : "-68.06293"
    }, {
      "geonameid" : "3861344",
      "name" : "Chivilcoy",
      "translatedname" : "Chivilcoy",
      "lat" : "-34.89566",
      "lng" : "-60.01667"
    }, {
      "geonameid" : "3861416",
      "name" : "Chimbas",
      "translatedname" : "Chimbas",
      "lat" : "-31.48333",
      "lng" : "-68.53333"
    }, {
      "geonameid" : "3861445",
      "name" : "Chilecito",
      "translatedname" : "Chilecito",
      "lat" : "-29.16195",
      "lng" : "-67.4974"
    }, {
      "geonameid" : "3861678",
      "name" : "Charata",
      "translatedname" : "Charata",
      "lat" : "-27.21438",
      "lng" : "-61.18795"
    }, {
      "geonameid" : "3861953",
      "name" : "Chacabuco",
      "translatedname" : "Chacabuco",
      "lat" : "-34.64167",
      "lng" : "-60.47389"
    }, {
      "geonameid" : "3862144",
      "name" : "Centenario",
      "translatedname" : "Centenario",
      "lat" : "-38.82955",
      "lng" : "-68.1318"
    }, {
      "geonameid" : "3862240",
      "name" : "Caucete",
      "translatedname" : "Caucete",
      "lat" : "-31.65179",
      "lng" : "-68.28105"
    }, {
      "geonameid" : "3862254",
      "name" : "Catriel",
      "translatedname" : "Catriel",
      "lat" : "-37.87907",
      "lng" : "-67.7956"
    }, {
      "geonameid" : "3862320",
      "name" : "Castelli",
      "translatedname" : "Castelli",
      "lat" : "-25.94679",
      "lng" : "-60.61947"
    }, {
      "geonameid" : "3862351",
      "name" : "Casilda",
      "translatedname" : "Casilda",
      "lat" : "-33.04417",
      "lng" : "-61.16806"
    }, {
      "geonameid" : "3862655",
      "name" : "Carcarañá",
      "translatedname" : "Carcarañá",
      "lat" : "-32.85679",
      "lng" : "-61.15331"
    }, {
      "geonameid" : "3862738",
      "name" : "Capitán Bermúdez",
      "translatedname" : "Capitán Bermúdez",
      "lat" : "-32.82262",
      "lng" : "-60.71852"
    }, {
      "geonameid" : "3862981",
      "name" : "Cañada de Gómez",
      "translatedname" : "Cañada de Gómez",
      "lat" : "-32.81636",
      "lng" : "-61.39493"
    }, {
      "geonameid" : "3863379",
      "name" : "Caleta Olivia",
      "translatedname" : "Caleta Olivia",
      "lat" : "-46.43929",
      "lng" : "-67.52814"
    }, {
      "geonameid" : "3864331",
      "name" : "Bell Ville",
      "translatedname" : "Bell Ville",
      "lat" : "-32.62591",
      "lng" : "-62.68873"
    }, {
      "geonameid" : "3864375",
      "name" : "Bella Vista",
      "translatedname" : "Bella Vista",
      "lat" : "-27.03084",
      "lng" : "-65.30315"
    }, {
      "geonameid" : "3865086",
      "name" : "Bahía Blanca",
      "translatedname" : "Bahía Blanca",
      "lat" : "-38.7196",
      "lng" : "-62.27243"
    }, {
      "geonameid" : "3865385",
      "name" : "Arroyo Seco",
      "translatedname" : "Arroyo Seco",
      "lat" : "-33.15489",
      "lng" : "-60.50863"
    }, {
      "geonameid" : "3865424",
      "name" : "Arroyito",
      "translatedname" : "Arroyito",
      "lat" : "-31.42022",
      "lng" : "-63.05002"
    }, {
      "geonameid" : "3865840",
      "name" : "Añatuya",
      "translatedname" : "Añatuya",
      "lat" : "-28.46064",
      "lng" : "-62.83472"
    }, {
      "geonameid" : "3866163",
      "name" : "Alta Gracia",
      "translatedname" : "Alta Gracia",
      "lat" : "-31.65292",
      "lng" : "-64.42826"
    }, {
      "geonameid" : "3866242",
      "name" : "Allen",
      "translatedname" : "Allen",
      "lat" : "-38.97736",
      "lng" : "-67.82714"
    }, {
      "geonameid" : "3866367",
      "name" : "Alderetes",
      "translatedname" : "Alderetes",
      "lat" : "-26.81667",
      "lng" : "-65.13333"
    }, {
      "geonameid" : "3866425",
      "name" : "Albardón",
      "translatedname" : "Albardón",
      "lat" : "-31.43722",
      "lng" : "-68.52556"
    }, {
      "geonameid" : "3866496",
      "name" : "Aguilares",
      "translatedname" : "Aguilares",
      "lat" : "-27.4338",
      "lng" : "-65.61427"
    }, {
      "geonameid" : "6693230",
      "name" : "Villa Santa Rita",
      "translatedname" : "Villa Santa Rita",
      "lat" : "-34.61082",
      "lng" : "-58.481"
    }, {
      "geonameid" : "7116866",
      "name" : "Villa Mercedes",
      "translatedname" : "Villa Mercedes",
      "lat" : "-33.67571",
      "lng" : "-65.45783"
    }, {
      "geonameid" : "7647007",
      "name" : "San Carlos de Bariloche",
      "translatedname" : "San Carlos de Bariloche",
      "lat" : "-41.14557",
      "lng" : "-71.30822"
    } ],
    "AS" : [ {
      "geonameid" : "5881576",
      "name" : "Pago Pago",
      "translatedname" : "Pago Pago",
      "lat" : "-14.27806",
      "lng" : "-170.7025"
    } ],
    "AT" : [ {
      "geonameid" : "2760910",
      "name" : "Wolfsberg",
      "translatedname" : "Wolfsberg",
      "lat" : "46.84056",
      "lng" : "14.84417"
    }, {
      "geonameid" : "2761353",
      "name" : "Wiener Neustadt",
      "translatedname" : "Wiener Neustadt",
      "lat" : "47.8",
      "lng" : "16.25"
    }, {
      "geonameid" : "2761369",
      "name" : "Vienna",
      "translatedname" : "Vienna",
      "lat" : "48.20849",
      "lng" : "16.37208"
    }, {
      "geonameid" : "2761524",
      "name" : "Wels",
      "translatedname" : "Wels",
      "lat" : "48.16667",
      "lng" : "14.03333"
    }, {
      "geonameid" : "2761669",
      "name" : "Weinzierl bei Krems",
      "translatedname" : "Weinzierl bei Krems",
      "lat" : "48.4",
      "lng" : "15.6"
    }, {
      "geonameid" : "2762372",
      "name" : "Villach",
      "translatedname" : "Villach",
      "lat" : "46.61028",
      "lng" : "13.85583"
    }, {
      "geonameid" : "2763423",
      "name" : "Traun",
      "translatedname" : "Traun",
      "lat" : "48.22656",
      "lng" : "14.23459"
    }, {
      "geonameid" : "2763460",
      "name" : "Traiskirchen",
      "translatedname" : "Traiskirchen",
      "lat" : "48.01485",
      "lng" : "16.29324"
    }, {
      "geonameid" : "2763795",
      "name" : "Ternitz",
      "translatedname" : "Ternitz",
      "lat" : "47.71565",
      "lng" : "16.03575"
    }, {
      "geonameid" : "2764359",
      "name" : "Steyr",
      "translatedname" : "Steyr",
      "lat" : "48.04274",
      "lng" : "14.42127"
    }, {
      "geonameid" : "2764786",
      "name" : "Spittal an der Drau",
      "translatedname" : "Spittal an der Drau",
      "lat" : "46.8",
      "lng" : "13.5"
    }, {
      "geonameid" : "2765388",
      "name" : "Schwechat",
      "translatedname" : "Schwechat",
      "lat" : "48.13333",
      "lng" : "16.46667"
    }, {
      "geonameid" : "2766429",
      "name" : "Sankt Pölten",
      "translatedname" : "Sankt Pölten",
      "lat" : "48.2",
      "lng" : "15.63333"
    }, {
      "geonameid" : "2766824",
      "name" : "Salzburg",
      "translatedname" : "Salzburg",
      "lat" : "47.79941",
      "lng" : "13.04399"
    }, {
      "geonameid" : "2766922",
      "name" : "Saalfelden am Steinernen Meer",
      "translatedname" : "Saalfelden am Steinernen Meer",
      "lat" : "47.42681",
      "lng" : "12.848"
    }, {
      "geonameid" : "2771335",
      "name" : "Mödling",
      "translatedname" : "Mödling",
      "lat" : "48.08605",
      "lng" : "16.28921"
    }, {
      "geonameid" : "2772173",
      "name" : "Lustenau",
      "translatedname" : "Lustenau",
      "lat" : "47.42642",
      "lng" : "9.65851"
    }, {
      "geonameid" : "2772400",
      "name" : "Linz",
      "translatedname" : "Linz",
      "lat" : "48.30639",
      "lng" : "14.28611"
    }, {
      "geonameid" : "2772635",
      "name" : "Leonding",
      "translatedname" : "Leonding",
      "lat" : "48.27965",
      "lng" : "14.2533"
    }, {
      "geonameid" : "2772649",
      "name" : "Leoben",
      "translatedname" : "Leoben",
      "lat" : "47.3765",
      "lng" : "15.09144"
    }, {
      "geonameid" : "2773300",
      "name" : "Kufstein",
      "translatedname" : "Kufstein",
      "lat" : "47.58333",
      "lng" : "12.16667"
    }, {
      "geonameid" : "2773549",
      "name" : "Krems an der Donau",
      "translatedname" : "Krems an der Donau",
      "lat" : "48.40921",
      "lng" : "15.61415"
    }, {
      "geonameid" : "2773913",
      "name" : "Klosterneuburg",
      "translatedname" : "Klosterneuburg",
      "lat" : "48.30521",
      "lng" : "16.32522"
    }, {
      "geonameid" : "2774326",
      "name" : "Klagenfurt am Wörthersee",
      "translatedname" : "Klagenfurt am Wörthersee",
      "lat" : "46.62472",
      "lng" : "14.30528"
    }, {
      "geonameid" : "2774773",
      "name" : "Kapfenberg",
      "translatedname" : "Kapfenberg",
      "lat" : "47.44458",
      "lng" : "15.29331"
    }, {
      "geonameid" : "2775220",
      "name" : "Innsbruck",
      "translatedname" : "Innsbruck",
      "lat" : "47.26266",
      "lng" : "11.39454"
    }, {
      "geonameid" : "2776951",
      "name" : "Hallein",
      "translatedname" : "Hallein",
      "lat" : "47.68333",
      "lng" : "13.1"
    }, {
      "geonameid" : "2778067",
      "name" : "Graz",
      "translatedname" : "Graz",
      "lat" : "47.06667",
      "lng" : "15.45"
    }, {
      "geonameid" : "2779674",
      "name" : "Feldkirch",
      "translatedname" : "Feldkirch",
      "lat" : "47.23306",
      "lng" : "9.6"
    }, {
      "geonameid" : "2780741",
      "name" : "Dornbirn",
      "translatedname" : "Dornbirn",
      "lat" : "47.41427",
      "lng" : "9.74195"
    }, {
      "geonameid" : "2781503",
      "name" : "Bregenz",
      "translatedname" : "Bregenz",
      "lat" : "47.50311",
      "lng" : "9.7471"
    }, {
      "geonameid" : "2781520",
      "name" : "Braunau am Inn",
      "translatedname" : "Braunau am Inn",
      "lat" : "48.25628",
      "lng" : "13.04343"
    }, {
      "geonameid" : "2782067",
      "name" : "Baden",
      "translatedname" : "Baden",
      "lat" : "48.00543",
      "lng" : "16.23264"
    }, {
      "geonameid" : "2782555",
      "name" : "Amstetten",
      "translatedname" : "Amstetten",
      "lat" : "48.1229",
      "lng" : "14.87206"
    }, {
      "geonameid" : "3323063",
      "name" : "Ansfelden",
      "translatedname" : "Ansfelden",
      "lat" : "47.965",
      "lng" : "13.04944"
    } ],
    "AU" : [ {
      "geonameid" : "2058430",
      "name" : "Whyalla",
      "translatedname" : "Whyalla",
      "lat" : "-33.03268",
      "lng" : "137.56484"
    }, {
      "geonameid" : "2062338",
      "name" : "Rockingham",
      "translatedname" : "Rockingham",
      "lat" : "-32.27682",
      "lng" : "115.72978"
    }, {
      "geonameid" : "2062944",
      "name" : "Prospect",
      "translatedname" : "Prospect",
      "lat" : "-34.88241",
      "lng" : "138.5933"
    }, {
      "geonameid" : "2063042",
      "name" : "Port Hedland",
      "translatedname" : "Port Hedland",
      "lat" : "-20.31215",
      "lng" : "118.61059"
    }, {
      "geonameid" : "2063523",
      "name" : "Perth",
      "translatedname" : "Perth",
      "lat" : "-31.95224",
      "lng" : "115.8614"
    }, {
      "geonameid" : "2065176",
      "name" : "Murray Bridge",
      "translatedname" : "Murray Bridge",
      "lat" : "-35.11986",
      "lng" : "139.27345"
    }, {
      "geonameid" : "2065594",
      "name" : "Mount Isa",
      "translatedname" : "Mount Isa",
      "lat" : "-20.72523",
      "lng" : "139.49727"
    }, {
      "geonameid" : "2065740",
      "name" : "Morphett Vale",
      "translatedname" : "Morphett Vale",
      "lat" : "-35.13333",
      "lng" : "138.51667"
    }, {
      "geonameid" : "2067119",
      "name" : "Mandurah",
      "translatedname" : "Mandurah",
      "lat" : "-32.5269",
      "lng" : "115.7217"
    }, {
      "geonameid" : "2068079",
      "name" : "Kwinana",
      "translatedname" : "Kwinana",
      "lat" : "-32.23013",
      "lng" : "115.78128"
    }, {
      "geonameid" : "2068823",
      "name" : "Kalgoorlie",
      "translatedname" : "Kalgoorlie",
      "lat" : "-30.74614",
      "lng" : "121.4742"
    }, {
      "geonameid" : "2070571",
      "name" : "Gosnells",
      "translatedname" : "Gosnells",
      "lat" : "-32.08333",
      "lng" : "116"
    }, {
      "geonameid" : "2070998",
      "name" : "Geraldton",
      "translatedname" : "Geraldton",
      "lat" : "-28.77897",
      "lng" : "114.61459"
    }, {
      "geonameid" : "2071059",
      "name" : "Gawler",
      "translatedname" : "Gawler",
      "lat" : "-34.60251",
      "lng" : "138.74902"
    }, {
      "geonameid" : "2071223",
      "name" : "Fremantle",
      "translatedname" : "Fremantle",
      "lat" : "-32.05",
      "lng" : "115.76667"
    }, {
      "geonameid" : "2073124",
      "name" : "Darwin",
      "translatedname" : "Darwin",
      "lat" : "-12.46113",
      "lng" : "130.84185"
    }, {
      "geonameid" : "2075265",
      "name" : "Busselton",
      "translatedname" : "Busselton",
      "lat" : "-33.65249",
      "lng" : "115.3455"
    }, {
      "geonameid" : "2075432",
      "name" : "Bunbury",
      "translatedname" : "Bunbury",
      "lat" : "-33.32711",
      "lng" : "115.64137"
    }, {
      "geonameid" : "2077579",
      "name" : "Armadale",
      "translatedname" : "Armadale",
      "lat" : "-32.14607",
      "lng" : "116.0093"
    }, {
      "geonameid" : "2077895",
      "name" : "Alice Springs",
      "translatedname" : "Alice Springs",
      "lat" : "-23.69748",
      "lng" : "133.88362"
    }, {
      "geonameid" : "2077963",
      "name" : "Albany",
      "translatedname" : "Albany",
      "lat" : "-35.0031",
      "lng" : "117.86595"
    }, {
      "geonameid" : "2078025",
      "name" : "Adelaide",
      "translatedname" : "Adelaide",
      "lat" : "-34.92866",
      "lng" : "138.59863"
    }, {
      "geonameid" : "2143069",
      "name" : "Woodridge",
      "translatedname" : "Woodridge",
      "lat" : "-27.63333",
      "lng" : "153.1"
    }, {
      "geonameid" : "2143285",
      "name" : "Wodonga",
      "translatedname" : "Wodonga",
      "lat" : "-36.12179",
      "lng" : "146.88809"
    }, {
      "geonameid" : "2144528",
      "name" : "Warrnambool",
      "translatedname" : "Warrnambool",
      "lat" : "-38.38176",
      "lng" : "142.48799"
    }, {
      "geonameid" : "2144764",
      "name" : "Wangaratta",
      "translatedname" : "Wangaratta",
      "lat" : "-36.35846",
      "lng" : "146.32056"
    }, {
      "geonameid" : "2145110",
      "name" : "Wagga Wagga",
      "translatedname" : "Wagga Wagga",
      "lat" : "-35.12577",
      "lng" : "147.35374"
    }, {
      "geonameid" : "2146108",
      "name" : "Traralgon",
      "translatedname" : "Traralgon",
      "lat" : "-38.19528",
      "lng" : "146.5415"
    }, {
      "geonameid" : "2146142",
      "name" : "Townsville",
      "translatedname" : "Townsville",
      "lat" : "-19.26639",
      "lng" : "146.8057"
    }, {
      "geonameid" : "2146268",
      "name" : "Toowoomba",
      "translatedname" : "Toowoomba",
      "lat" : "-27.56056",
      "lng" : "151.95386"
    }, {
      "geonameid" : "2147381",
      "name" : "Taree",
      "translatedname" : "Taree",
      "lat" : "-31.91099",
      "lng" : "152.45387"
    }, {
      "geonameid" : "2147497",
      "name" : "Tamworth",
      "translatedname" : "Tamworth",
      "lat" : "-31.09048",
      "lng" : "150.92905"
    }, {
      "geonameid" : "2147714",
      "name" : "Sydney",
      "translatedname" : "Sydney",
      "lat" : "-33.86785",
      "lng" : "151.20732"
    }, {
      "geonameid" : "2147849",
      "name" : "Surfers Paradise",
      "translatedname" : "Surfers Paradise",
      "lat" : "-28.00274",
      "lng" : "153.42999"
    }, {
      "geonameid" : "2147892",
      "name" : "Sunnybank",
      "translatedname" : "Sunnybank",
      "lat" : "-27.58333",
      "lng" : "153.05"
    }, {
      "geonameid" : "2147914",
      "name" : "Sunbury",
      "translatedname" : "Sunbury",
      "lat" : "-37.57742",
      "lng" : "144.72607"
    }, {
      "geonameid" : "2148398",
      "name" : "Port Stephens",
      "translatedname" : "Port Stephens",
      "lat" : "-32.71314",
      "lng" : "152.06623"
    }, {
      "geonameid" : "2148928",
      "name" : "Southport",
      "translatedname" : "Southport",
      "lat" : "-27.96667",
      "lng" : "153.4"
    }, {
      "geonameid" : "2148997",
      "name" : "South Grafton",
      "translatedname" : "South Grafton",
      "lat" : "-29.7",
      "lng" : "152.95"
    }, {
      "geonameid" : "2149645",
      "name" : "Shepparton",
      "translatedname" : "Shepparton",
      "lat" : "-36.38047",
      "lng" : "145.39867"
    }, {
      "geonameid" : "2150660",
      "name" : "Saint Kilda",
      "translatedname" : "Saint Kilda",
      "lat" : "-37.8676",
      "lng" : "144.98099"
    }, {
      "geonameid" : "2151437",
      "name" : "Rockhampton",
      "translatedname" : "Rockhampton",
      "lat" : "-23.38032",
      "lng" : "150.50595"
    }, {
      "geonameid" : "2151649",
      "name" : "Richmond",
      "translatedname" : "Richmond",
      "lat" : "-37.81819",
      "lng" : "145.00176"
    }, {
      "geonameid" : "2152286",
      "name" : "Queanbeyan",
      "translatedname" : "Queanbeyan",
      "lat" : "-35.35493",
      "lng" : "149.232"
    }, {
      "geonameid" : "2152329",
      "name" : "Quakers Hill",
      "translatedname" : "Quakers Hill",
      "lat" : "-33.73333",
      "lng" : "150.88333"
    }, {
      "geonameid" : "2152659",
      "name" : "Port Macquarie",
      "translatedname" : "Port Macquarie",
      "lat" : "-31.43084",
      "lng" : "152.90894"
    }, {
      "geonameid" : "2154219",
      "name" : "Orange",
      "translatedname" : "Orange",
      "lat" : "-33.28397",
      "lng" : "149.10018"
    }, {
      "geonameid" : "2154787",
      "name" : "Nowra",
      "translatedname" : "Nowra",
      "lat" : "-34.88422",
      "lng" : "150.60036"
    }, {
      "geonameid" : "2155472",
      "name" : "Newcastle",
      "translatedname" : "Newcastle",
      "lat" : "-32.92715",
      "lng" : "151.77647"
    }, {
      "geonameid" : "2155542",
      "name" : "Nerang",
      "translatedname" : "Nerang",
      "lat" : "-27.98941",
      "lng" : "153.33633"
    }, {
      "geonameid" : "2156340",
      "name" : "Mulgrave",
      "translatedname" : "Mulgrave",
      "lat" : "-37.91667",
      "lng" : "145.2"
    }, {
      "geonameid" : "2156643",
      "name" : "Mount Gambier",
      "translatedname" : "Mount Gambier",
      "lat" : "-37.8318",
      "lng" : "140.77919"
    }, {
      "geonameid" : "2156813",
      "name" : "Mosman",
      "translatedname" : "Mosman",
      "lat" : "-33.82778",
      "lng" : "151.23333"
    }, {
      "geonameid" : "2156878",
      "name" : "Mornington",
      "translatedname" : "Mornington",
      "lat" : "-38.21667",
      "lng" : "145.03333"
    }, {
      "geonameid" : "2156934",
      "name" : "Morayfield",
      "translatedname" : "Morayfield",
      "lat" : "-27.10876",
      "lng" : "152.94907"
    }, {
      "geonameid" : "2157343",
      "name" : "Moe",
      "translatedname" : "Moe",
      "lat" : "-38.17828",
      "lng" : "146.26099"
    }, {
      "geonameid" : "2157698",
      "name" : "Mildura",
      "translatedname" : "Mildura",
      "lat" : "-34.18551",
      "lng" : "142.16251"
    }, {
      "geonameid" : "2158151",
      "name" : "Melton",
      "translatedname" : "Melton",
      "lat" : "-37.68339",
      "lng" : "144.58543"
    }, {
      "geonameid" : "2158177",
      "name" : "Melbourne",
      "translatedname" : "Melbourne",
      "lat" : "-37.814",
      "lng" : "144.96332"
    }, {
      "geonameid" : "2158562",
      "name" : "Maryborough",
      "translatedname" : "Maryborough",
      "lat" : "-25.54073",
      "lng" : "152.70493"
    }, {
      "geonameid" : "2158626",
      "name" : "Marrickville",
      "translatedname" : "Marrickville",
      "lat" : "-33.91667",
      "lng" : "151.16667"
    }, {
      "geonameid" : "2158651",
      "name" : "Maroubra",
      "translatedname" : "Maroubra",
      "lat" : "-33.95",
      "lng" : "151.23333"
    }, {
      "geonameid" : "2159045",
      "name" : "Maitland",
      "translatedname" : "Maitland",
      "lat" : "-32.73308",
      "lng" : "151.5574"
    }, {
      "geonameid" : "2159220",
      "name" : "Mackay",
      "translatedname" : "Mackay",
      "lat" : "-21.15345",
      "lng" : "149.16554"
    }, {
      "geonameid" : "2159851",
      "name" : "Liverpool",
      "translatedname" : "Liverpool",
      "lat" : "-33.9",
      "lng" : "150.93333"
    }, {
      "geonameid" : "2160063",
      "name" : "Lismore",
      "translatedname" : "Lismore",
      "lat" : "-28.81354",
      "lng" : "153.2773"
    }, {
      "geonameid" : "2160517",
      "name" : "Launceston",
      "translatedname" : "Launceston",
      "lat" : "-41.43876",
      "lng" : "147.13467"
    }, {
      "geonameid" : "2160560",
      "name" : "Lara",
      "translatedname" : "Lara",
      "lat" : "-38.02388",
      "lng" : "144.40617"
    }, {
      "geonameid" : "2161776",
      "name" : "Katoomba",
      "translatedname" : "Katoomba",
      "lat" : "-33.71977",
      "lng" : "150.30739"
    }, {
      "geonameid" : "2163137",
      "name" : "Hornsby",
      "translatedname" : "Hornsby",
      "lat" : "-33.70244",
      "lng" : "151.09931"
    }, {
      "geonameid" : "2163355",
      "name" : "Hobart",
      "translatedname" : "Hobart",
      "lat" : "-42.87936",
      "lng" : "147.32941"
    }, {
      "geonameid" : "2164422",
      "name" : "Griffith",
      "translatedname" : "Griffith",
      "lat" : "-34.28853",
      "lng" : "146.05093"
    }, {
      "geonameid" : "2164515",
      "name" : "Greensborough",
      "translatedname" : "Greensborough",
      "lat" : "-37.70462",
      "lng" : "145.10302"
    }, {
      "geonameid" : "2164691",
      "name" : "Granville",
      "translatedname" : "Granville",
      "lat" : "-33.83333",
      "lng" : "151.01667"
    }, {
      "geonameid" : "2164837",
      "name" : "Goulburn",
      "translatedname" : "Goulburn",
      "lat" : "-34.75155",
      "lng" : "149.72086"
    }, {
      "geonameid" : "2165087",
      "name" : "Gold Coast",
      "translatedname" : "Gold Coast",
      "lat" : "-28.00029",
      "lng" : "153.43088"
    }, {
      "geonameid" : "2165478",
      "name" : "Gladstone",
      "translatedname" : "Gladstone",
      "lat" : "-23.84761",
      "lng" : "151.25635"
    }, {
      "geonameid" : "2165798",
      "name" : "Geelong",
      "translatedname" : "Geelong",
      "lat" : "-38.14711",
      "lng" : "144.36069"
    }, {
      "geonameid" : "2166143",
      "name" : "Frankston East",
      "translatedname" : "Frankston East",
      "lat" : "-38.13333",
      "lng" : "145.13333"
    }, {
      "geonameid" : "2166309",
      "name" : "Forster",
      "translatedname" : "Forster",
      "lat" : "-32.18136",
      "lng" : "152.51715"
    }, {
      "geonameid" : "2167280",
      "name" : "Epping",
      "translatedname" : "Epping",
      "lat" : "-33.77271",
      "lng" : "151.08184"
    }, {
      "geonameid" : "2167312",
      "name" : "Engadine",
      "translatedname" : "Engadine",
      "lat" : "-34.06667",
      "lng" : "151.01667"
    }, {
      "geonameid" : "2167817",
      "name" : "Echuca",
      "translatedname" : "Echuca",
      "lat" : "-36.14057",
      "lng" : "144.75185"
    }, {
      "geonameid" : "2167949",
      "name" : "Earlwood",
      "translatedname" : "Earlwood",
      "lat" : "-33.95",
      "lng" : "151.1"
    }, {
      "geonameid" : "2168305",
      "name" : "Dubbo",
      "translatedname" : "Dubbo",
      "lat" : "-32.24295",
      "lng" : "148.60484"
    }, {
      "geonameid" : "2168943",
      "name" : "Devonport",
      "translatedname" : "Devonport",
      "lat" : "-41.17695",
      "lng" : "146.35152"
    }, {
      "geonameid" : "2169220",
      "name" : "Deception Bay",
      "translatedname" : "Deception Bay",
      "lat" : "-27.19354",
      "lng" : "153.02631"
    }, {
      "geonameid" : "2169956",
      "name" : "Cronulla",
      "translatedname" : "Cronulla",
      "lat" : "-34.05",
      "lng" : "151.15"
    }, {
      "geonameid" : "2170078",
      "name" : "Cranbourne",
      "translatedname" : "Cranbourne",
      "lat" : "-38.1",
      "lng" : "145.28333"
    }, {
      "geonameid" : "2170089",
      "name" : "Craigieburn",
      "translatedname" : "Craigieburn",
      "lat" : "-37.6",
      "lng" : "144.95"
    }, {
      "geonameid" : "2171085",
      "name" : "Coffs Harbour",
      "translatedname" : "Coffs Harbour",
      "lat" : "-30.29626",
      "lng" : "153.11351"
    }, {
      "geonameid" : "2171507",
      "name" : "Wollongong",
      "translatedname" : "Wollongong",
      "lat" : "-34.424",
      "lng" : "150.89345"
    }, {
      "geonameid" : "2171845",
      "name" : "Cessnock",
      "translatedname" : "Cessnock",
      "lat" : "-32.83211",
      "lng" : "151.35623"
    }, {
      "geonameid" : "2172111",
      "name" : "Castle Hill",
      "translatedname" : "Castle Hill",
      "lat" : "-33.73333",
      "lng" : "151"
    }, {
      "geonameid" : "2172303",
      "name" : "Carlingford",
      "translatedname" : "Carlingford",
      "lat" : "-33.78269",
      "lng" : "151.04888"
    }, {
      "geonameid" : "2172311",
      "name" : "Caringbah",
      "translatedname" : "Caringbah",
      "lat" : "-34.05",
      "lng" : "151.13333"
    }, {
      "geonameid" : "2172517",
      "name" : "Canberra",
      "translatedname" : "Canberra",
      "lat" : "-35.28346",
      "lng" : "149.12807"
    }, {
      "geonameid" : "2172686",
      "name" : "Camberwell",
      "translatedname" : "Camberwell",
      "lat" : "-37.84205",
      "lng" : "145.0694"
    }, {
      "geonameid" : "2172710",
      "name" : "Caloundra",
      "translatedname" : "Caloundra",
      "lat" : "-26.79709",
      "lng" : "153.13771"
    }, {
      "geonameid" : "2172797",
      "name" : "Cairns",
      "translatedname" : "Cairns",
      "lat" : "-16.92304",
      "lng" : "145.76625"
    }, {
      "geonameid" : "2172832",
      "name" : "Caboolture",
      "translatedname" : "Caboolture",
      "lat" : "-27.08465",
      "lng" : "152.9511"
    }, {
      "geonameid" : "2173125",
      "name" : "Burnie",
      "translatedname" : "Burnie",
      "lat" : "-41.05584",
      "lng" : "145.90375"
    }, {
      "geonameid" : "2173323",
      "name" : "Bundaberg",
      "translatedname" : "Bundaberg",
      "lat" : "-24.86621",
      "lng" : "152.3479"
    }, {
      "geonameid" : "2173605",
      "name" : "Buderim",
      "translatedname" : "Buderim",
      "lat" : "-26.68443",
      "lng" : "153.05705"
    }, {
      "geonameid" : "2173741",
      "name" : "Brunswick",
      "translatedname" : "Brunswick",
      "lat" : "-37.76667",
      "lng" : "144.96667"
    }, {
      "geonameid" : "2173911",
      "name" : "Broken Hill",
      "translatedname" : "Broken Hill",
      "lat" : "-31.96173",
      "lng" : "141.45998"
    }, {
      "geonameid" : "2174003",
      "name" : "Brisbane",
      "translatedname" : "Brisbane",
      "lat" : "-27.46794",
      "lng" : "153.02809"
    }, {
      "geonameid" : "2175411",
      "name" : "Blacktown",
      "translatedname" : "Blacktown",
      "lat" : "-33.76667",
      "lng" : "150.91667"
    }, {
      "geonameid" : "2176187",
      "name" : "Bendigo",
      "translatedname" : "Bendigo",
      "lat" : "-36.75818",
      "lng" : "144.28024"
    }, {
      "geonameid" : "2176632",
      "name" : "Bathurst",
      "translatedname" : "Bathurst",
      "lat" : "-33.41665",
      "lng" : "149.5806"
    }, {
      "geonameid" : "2176934",
      "name" : "Banora Point",
      "translatedname" : "Banora Point",
      "lat" : "-28.21298",
      "lng" : "153.53634"
    }, {
      "geonameid" : "2177091",
      "name" : "Ballarat",
      "translatedname" : "Ballarat",
      "lat" : "-37.56622",
      "lng" : "143.84957"
    }, {
      "geonameid" : "2177671",
      "name" : "Armidale",
      "translatedname" : "Armidale",
      "lat" : "-30.50828",
      "lng" : "151.67123"
    }, {
      "geonameid" : "2178174",
      "name" : "Albury",
      "translatedname" : "Albury",
      "lat" : "-36.07494",
      "lng" : "146.92394"
    }, {
      "geonameid" : "2207259",
      "name" : "South Brisbane",
      "translatedname" : "South Brisbane",
      "lat" : "-27.48333",
      "lng" : "153.01667"
    }, {
      "geonameid" : "2208285",
      "name" : "Randwick",
      "translatedname" : "Randwick",
      "lat" : "-33.91667",
      "lng" : "151.24167"
    }, {
      "geonameid" : "2208305",
      "name" : "Dee Why",
      "translatedname" : "Dee Why",
      "lat" : "-33.75",
      "lng" : "151.3"
    }, {
      "geonameid" : "6301965",
      "name" : "Palmerston",
      "translatedname" : "Palmerston",
      "lat" : "-12.48602",
      "lng" : "130.9833"
    }, {
      "geonameid" : "6943558",
      "name" : "Bracken Ridge",
      "translatedname" : "Bracken Ridge",
      "lat" : "-27.3171",
      "lng" : "153.03097"
    }, {
      "geonameid" : "7281782",
      "name" : "North Ryde",
      "translatedname" : "North Ryde",
      "lat" : "-33.79677",
      "lng" : "151.12436"
    }, {
      "geonameid" : "7281807",
      "name" : "Hoppers Crossing",
      "translatedname" : "Hoppers Crossing",
      "lat" : "-37.88264",
      "lng" : "144.7003"
    }, {
      "geonameid" : "7281838",
      "name" : "Logan City",
      "translatedname" : "Logan City",
      "lat" : "-27.63917",
      "lng" : "153.10944"
    }, {
      "geonameid" : "7281839",
      "name" : "Carindale",
      "translatedname" : "Carindale",
      "lat" : "-27.50578",
      "lng" : "153.10236"
    }, {
      "geonameid" : "7281840",
      "name" : "Paramatta",
      "translatedname" : "Paramatta",
      "lat" : "-33.8178",
      "lng" : "151.00348"
    }, {
      "geonameid" : "7281850",
      "name" : "Ferntree Gully",
      "translatedname" : "Ferntree Gully",
      "lat" : "-37.88461",
      "lng" : "145.29539"
    }, {
      "geonameid" : "7302259",
      "name" : "City of Parramatta",
      "translatedname" : "City of Parramatta",
      "lat" : "-33.81667",
      "lng" : "151"
    }, {
      "geonameid" : "7302628",
      "name" : "Adelaide Hills",
      "translatedname" : "Adelaide Hills",
      "lat" : "-34.91118",
      "lng" : "138.70735"
    }, {
      "geonameid" : "7302631",
      "name" : "Canning Vale",
      "translatedname" : "Canning Vale",
      "lat" : "-32.05798",
      "lng" : "115.91814"
    }, {
      "geonameid" : "7302642",
      "name" : "Glenmore Park",
      "translatedname" : "Glenmore Park",
      "lat" : "-33.79068",
      "lng" : "150.6693"
    }, {
      "geonameid" : "7932612",
      "name" : "Glen Iris",
      "translatedname" : "Glen Iris",
      "lat" : "-37.85995",
      "lng" : "145.05489"
    }, {
      "geonameid" : "7932629",
      "name" : "Balwyn North",
      "translatedname" : "Balwyn North",
      "lat" : "-37.79086",
      "lng" : "145.09386"
    }, {
      "geonameid" : "7932636",
      "name" : "Carnegie",
      "translatedname" : "Carnegie",
      "lat" : "-37.88867",
      "lng" : "145.05713"
    }, {
      "geonameid" : "7932638",
      "name" : "Malvern East",
      "translatedname" : "Malvern East",
      "lat" : "-37.87397",
      "lng" : "145.04253"
    }, {
      "geonameid" : "7932646",
      "name" : "Brighton East",
      "translatedname" : "Brighton East",
      "lat" : "-37.90141",
      "lng" : "145.01884"
    }, {
      "geonameid" : "7932654",
      "name" : "Booval",
      "translatedname" : "Booval",
      "lat" : "-27.61328",
      "lng" : "152.78944"
    }, {
      "geonameid" : "8015209",
      "name" : "St Albans",
      "translatedname" : "St Albans",
      "lat" : "-37.74496",
      "lng" : "144.80049"
    }, {
      "geonameid" : "8347325",
      "name" : "Endeavour Hills",
      "translatedname" : "Endeavour Hills",
      "lat" : "-37.97695",
      "lng" : "145.25866"
    }, {
      "geonameid" : "8347717",
      "name" : "Clayton",
      "translatedname" : "Clayton",
      "lat" : "-37.91731",
      "lng" : "145.13041"
    } ],
    "AW" : [ {
      "geonameid" : "3577154",
      "name" : "Oranjestad",
      "translatedname" : "Oranjestad",
      "lat" : "12.52398",
      "lng" : "-70.02703"
    }, {
      "geonameid" : "3577277",
      "name" : "Babijn",
      "translatedname" : "Babijn",
      "lat" : "12.53333",
      "lng" : "-69.98333"
    }, {
      "geonameid" : "3577284",
      "name" : "Angochi",
      "translatedname" : "Angochi",
      "lat" : "12.51667",
      "lng" : "-69.95"
    } ],
    "AX" : [ {
      "geonameid" : "3041732",
      "name" : "Mariehamn",
      "translatedname" : "Mariehamn",
      "lat" : "60.09726",
      "lng" : "19.93481"
    } ],
    "AZ" : [ {
      "geonameid" : "146970",
      "name" : "Xankǝndi",
      "translatedname" : "Xankǝndi",
      "lat" : "39.8177",
      "lng" : "46.7528"
    }, {
      "geonameid" : "147059",
      "name" : "Əhmədbəyli",
      "translatedname" : "Əhmədbəyli",
      "lat" : "39.87867",
      "lng" : "48.39902"
    }, {
      "geonameid" : "147105",
      "name" : "Shushi",
      "translatedname" : "Shushi",
      "lat" : "39.76006",
      "lng" : "46.74989"
    }, {
      "geonameid" : "147271",
      "name" : "Salyan",
      "translatedname" : "Salyan",
      "lat" : "39.59621",
      "lng" : "48.98479"
    }, {
      "geonameid" : "147288",
      "name" : "Saatlı",
      "translatedname" : "Saatlı",
      "lat" : "39.93214",
      "lng" : "48.36892"
    }, {
      "geonameid" : "147425",
      "name" : "Neftçala",
      "translatedname" : "Neftçala",
      "lat" : "39.3768",
      "lng" : "49.247"
    }, {
      "geonameid" : "147429",
      "name" : "Nakhchivan",
      "translatedname" : "Nakhchivan",
      "lat" : "39.20889",
      "lng" : "45.41222"
    }, {
      "geonameid" : "147622",
      "name" : "Lǝnkǝran",
      "translatedname" : "Lǝnkǝran",
      "lat" : "38.75428",
      "lng" : "48.85062"
    }, {
      "geonameid" : "147982",
      "name" : "Imishli",
      "translatedname" : "Imishli",
      "lat" : "39.87095",
      "lng" : "48.05995"
    }, {
      "geonameid" : "148106",
      "name" : "Fizuli",
      "translatedname" : "Fizuli",
      "lat" : "39.60094",
      "lng" : "47.14529"
    }, {
      "geonameid" : "148290",
      "name" : "Dzhalilabad",
      "translatedname" : "Dzhalilabad",
      "lat" : "39.20963",
      "lng" : "48.49186"
    }, {
      "geonameid" : "148340",
      "name" : "Pushkino",
      "translatedname" : "Pushkino",
      "lat" : "39.45833",
      "lng" : "48.545"
    }, {
      "geonameid" : "148354",
      "name" : "Beyləqan",
      "translatedname" : "Beyləqan",
      "lat" : "39.77556",
      "lng" : "47.61861"
    }, {
      "geonameid" : "148445",
      "name" : "Astara",
      "translatedname" : "Astara",
      "lat" : "38.45598",
      "lng" : "48.87498"
    }, {
      "geonameid" : "148565",
      "name" : "Şirvan",
      "translatedname" : "Şirvan",
      "lat" : "39.93778",
      "lng" : "48.929"
    }, {
      "geonameid" : "148619",
      "name" : "Ağdam",
      "translatedname" : "Ağdam",
      "lat" : "39.99096",
      "lng" : "46.92736"
    }, {
      "geonameid" : "584596",
      "name" : "Zaqatala",
      "translatedname" : "Zaqatala",
      "lat" : "41.63361",
      "lng" : "46.64333"
    }, {
      "geonameid" : "584614",
      "name" : "Zabrat",
      "translatedname" : "Zabrat",
      "lat" : "40.47746",
      "lng" : "49.94174"
    }, {
      "geonameid" : "584649",
      "name" : "Yevlakh",
      "translatedname" : "Yevlakh",
      "lat" : "40.61832",
      "lng" : "47.15014"
    }, {
      "geonameid" : "584716",
      "name" : "Yelenendorf",
      "translatedname" : "Yelenendorf",
      "lat" : "40.58584",
      "lng" : "46.3189"
    }, {
      "geonameid" : "584717",
      "name" : "Xaçmaz",
      "translatedname" : "Xaçmaz",
      "lat" : "41.46426",
      "lng" : "48.80565"
    }, {
      "geonameid" : "584791",
      "name" : "Ujar",
      "translatedname" : "Ujar",
      "lat" : "40.51902",
      "lng" : "47.65423"
    }, {
      "geonameid" : "584871",
      "name" : "Terter",
      "translatedname" : "Terter",
      "lat" : "40.34179",
      "lng" : "46.93242"
    }, {
      "geonameid" : "584923",
      "name" : "Sumqayıt",
      "translatedname" : "Sumqayıt",
      "lat" : "40.58972",
      "lng" : "49.66861"
    }, {
      "geonameid" : "585103",
      "name" : "Qaraçuxur",
      "translatedname" : "Qaraçuxur",
      "lat" : "40.39667",
      "lng" : "49.97361"
    }, {
      "geonameid" : "585152",
      "name" : "Shamkhor",
      "translatedname" : "Shamkhor",
      "lat" : "40.82972",
      "lng" : "46.01889"
    }, {
      "geonameid" : "585156",
      "name" : "Shamakhi",
      "translatedname" : "Shamakhi",
      "lat" : "40.63141",
      "lng" : "48.64137"
    }, {
      "geonameid" : "585170",
      "name" : "Sheki",
      "translatedname" : "Sheki",
      "lat" : "41.19194",
      "lng" : "47.17056"
    }, {
      "geonameid" : "585184",
      "name" : "Sabunçu",
      "translatedname" : "Sabunçu",
      "lat" : "40.4425",
      "lng" : "49.94806"
    }, {
      "geonameid" : "585187",
      "name" : "Sabirabad",
      "translatedname" : "Sabirabad",
      "lat" : "40.00869",
      "lng" : "48.47701"
    }, {
      "geonameid" : "585220",
      "name" : "Qusar",
      "translatedname" : "Qusar",
      "lat" : "41.4275",
      "lng" : "48.4302"
    }, {
      "geonameid" : "585221",
      "name" : "Quba",
      "translatedname" : "Quba",
      "lat" : "41.36108",
      "lng" : "48.51341"
    }, {
      "geonameid" : "585225",
      "name" : "Hacıqabul",
      "translatedname" : "Hacıqabul",
      "lat" : "40.03874",
      "lng" : "48.94286"
    }, {
      "geonameid" : "585226",
      "name" : "Qazax",
      "translatedname" : "Qazax",
      "lat" : "41.09246",
      "lng" : "45.36561"
    }, {
      "geonameid" : "585379",
      "name" : "Hacı Zeynalabdin",
      "translatedname" : "Hacı Zeynalabdin",
      "lat" : "40.62333",
      "lng" : "49.55861"
    }, {
      "geonameid" : "585514",
      "name" : "Mingelchaur",
      "translatedname" : "Mingelchaur",
      "lat" : "40.76395",
      "lng" : "47.05953"
    }, {
      "geonameid" : "585557",
      "name" : "Maştağa",
      "translatedname" : "Maştağa",
      "lat" : "40.52982",
      "lng" : "50.00616"
    }, {
      "geonameid" : "585568",
      "name" : "Mardakyany",
      "translatedname" : "Mardakyany",
      "lat" : "40.49182",
      "lng" : "50.14292"
    }, {
      "geonameid" : "585630",
      "name" : "Lökbatan",
      "translatedname" : "Lökbatan",
      "lat" : "40.3256",
      "lng" : "49.73376"
    }, {
      "geonameid" : "585763",
      "name" : "Kyurdarmir",
      "translatedname" : "Kyurdarmir",
      "lat" : "40.34532",
      "lng" : "48.15085"
    }, {
      "geonameid" : "585915",
      "name" : "Khirdalan",
      "translatedname" : "Khirdalan",
      "lat" : "40.44808",
      "lng" : "49.75502"
    }, {
      "geonameid" : "586340",
      "name" : "Yeni Suraxanı",
      "translatedname" : "Yeni Suraxanı",
      "lat" : "40.43026",
      "lng" : "50.03598"
    }, {
      "geonameid" : "586427",
      "name" : "Geoktschai",
      "translatedname" : "Geoktschai",
      "lat" : "40.65056",
      "lng" : "47.74219"
    }, {
      "geonameid" : "586429",
      "name" : "Hövsan",
      "translatedname" : "Hövsan",
      "lat" : "40.37444",
      "lng" : "50.08528"
    }, {
      "geonameid" : "586523",
      "name" : "Ganja",
      "translatedname" : "Ganja",
      "lat" : "40.68278",
      "lng" : "46.36056"
    }, {
      "geonameid" : "586763",
      "name" : "Divichibazar",
      "translatedname" : "Divichibazar",
      "lat" : "41.20117",
      "lng" : "48.98712"
    }, {
      "geonameid" : "586925",
      "name" : "Buzovna",
      "translatedname" : "Buzovna",
      "lat" : "40.51903",
      "lng" : "50.11438"
    }, {
      "geonameid" : "586968",
      "name" : "Biny Selo",
      "translatedname" : "Biny Selo",
      "lat" : "40.45076",
      "lng" : "50.08686"
    }, {
      "geonameid" : "587057",
      "name" : "Barda",
      "translatedname" : "Barda",
      "lat" : "40.37577",
      "lng" : "47.12619"
    }, {
      "geonameid" : "587078",
      "name" : "Bilajari",
      "translatedname" : "Bilajari",
      "lat" : "40.4444",
      "lng" : "49.80566"
    }, {
      "geonameid" : "587084",
      "name" : "Baku",
      "translatedname" : "Baku",
      "lat" : "40.37767",
      "lng" : "49.89201"
    }, {
      "geonameid" : "587261",
      "name" : "Amirdzhan",
      "translatedname" : "Amirdzhan",
      "lat" : "40.42639",
      "lng" : "49.98361"
    }, {
      "geonameid" : "587361",
      "name" : "Aghsu",
      "translatedname" : "Aghsu",
      "lat" : "40.57028",
      "lng" : "48.40087"
    }, {
      "geonameid" : "587378",
      "name" : "Ağdaş",
      "translatedname" : "Ağdaş",
      "lat" : "40.64699",
      "lng" : "47.4738"
    }, {
      "geonameid" : "587384",
      "name" : "Agdzhabedy",
      "translatedname" : "Agdzhabedy",
      "lat" : "40.05015",
      "lng" : "47.45937"
    }, {
      "geonameid" : "824003",
      "name" : "Bakıxanov",
      "translatedname" : "Bakıxanov",
      "lat" : "40.41894",
      "lng" : "49.96693"
    } ],
    "BA" : [ {
      "geonameid" : "3186573",
      "name" : "Zenica",
      "translatedname" : "Zenica",
      "lat" : "44.20169",
      "lng" : "17.90397"
    }, {
      "geonameid" : "3187609",
      "name" : "Visoko",
      "translatedname" : "Visoko",
      "lat" : "43.98889",
      "lng" : "18.17806"
    }, {
      "geonameid" : "3188225",
      "name" : "Velika Kladuša",
      "translatedname" : "Velika Kladuša",
      "lat" : "45.18497",
      "lng" : "15.80579"
    }, {
      "geonameid" : "3188582",
      "name" : "Tuzla",
      "translatedname" : "Tuzla",
      "lat" : "44.53842",
      "lng" : "18.66709"
    }, {
      "geonameid" : "3188893",
      "name" : "Trebinje",
      "translatedname" : "Trebinje",
      "lat" : "42.71197",
      "lng" : "18.34362"
    }, {
      "geonameid" : "3188924",
      "name" : "Travnik",
      "translatedname" : "Travnik",
      "lat" : "44.22637",
      "lng" : "17.66582"
    }, {
      "geonameid" : "3191281",
      "name" : "Sarajevo",
      "translatedname" : "Sarajevo",
      "lat" : "43.84864",
      "lng" : "18.35644"
    }, {
      "geonameid" : "3192409",
      "name" : "Prijedor",
      "translatedname" : "Prijedor",
      "lat" : "44.97991",
      "lng" : "16.71401"
    }, {
      "geonameid" : "3194828",
      "name" : "Mostar",
      "translatedname" : "Mostar",
      "lat" : "43.34333",
      "lng" : "17.80806"
    }, {
      "geonameid" : "3199744",
      "name" : "Gradačac",
      "translatedname" : "Gradačac",
      "lat" : "44.87851",
      "lng" : "18.42764"
    }, {
      "geonameid" : "3199779",
      "name" : "Gračanica",
      "translatedname" : "Gračanica",
      "lat" : "44.70307",
      "lng" : "18.3101"
    }, {
      "geonameid" : "3200396",
      "name" : "Goražde",
      "translatedname" : "Goražde",
      "lat" : "43.66795",
      "lng" : "18.97564"
    }, {
      "geonameid" : "3201984",
      "name" : "Doboj",
      "translatedname" : "Doboj",
      "lat" : "44.73179",
      "lng" : "18.08698"
    }, {
      "geonameid" : "3202822",
      "name" : "Cazin",
      "translatedname" : "Cazin",
      "lat" : "44.96694",
      "lng" : "15.94306"
    }, {
      "geonameid" : "3203099",
      "name" : "Bugojno",
      "translatedname" : "Bugojno",
      "lat" : "44.05722",
      "lng" : "17.45083"
    }, {
      "geonameid" : "3203521",
      "name" : "Brčko",
      "translatedname" : "Brčko",
      "lat" : "44.87278",
      "lng" : "18.80833"
    }, {
      "geonameid" : "3203653",
      "name" : "Bosanska Krupa",
      "translatedname" : "Bosanska Krupa",
      "lat" : "44.8825",
      "lng" : "16.15139"
    }, {
      "geonameid" : "3204186",
      "name" : "Bijeljina",
      "translatedname" : "Bijeljina",
      "lat" : "44.75874",
      "lng" : "19.21437"
    }, {
      "geonameid" : "3204222",
      "name" : "Bihać",
      "translatedname" : "Bihać",
      "lat" : "44.81694",
      "lng" : "15.87083"
    }, {
      "geonameid" : "3204541",
      "name" : "Banja Luka",
      "translatedname" : "Banja Luka",
      "lat" : "44.77583",
      "lng" : "17.18556"
    }, {
      "geonameid" : "3337476",
      "name" : "Konjic",
      "translatedname" : "Konjic",
      "lat" : "43.65126",
      "lng" : "17.96082"
    } ],
    "BB" : [ {
      "geonameid" : "3374036",
      "name" : "Bridgetown",
      "translatedname" : "Bridgetown",
      "lat" : "13.1",
      "lng" : "-59.61667"
    } ],
    "BD" : [ {
      "geonameid" : "1185092",
      "name" : "Thākurgaon",
      "translatedname" : "Thākurgaon",
      "lat" : "26.03097",
      "lng" : "88.46989"
    }, {
      "geonameid" : "1185095",
      "name" : "Teknāf",
      "translatedname" : "Teknāf",
      "lat" : "20.86382",
      "lng" : "92.30153"
    }, {
      "geonameid" : "1185098",
      "name" : "Tungi",
      "translatedname" : "Tungi",
      "lat" : "23.89154",
      "lng" : "90.40232"
    }, {
      "geonameid" : "1185099",
      "name" : "Sylhet",
      "translatedname" : "Sylhet",
      "lat" : "24.89904",
      "lng" : "91.87198"
    }, {
      "geonameid" : "1185100",
      "name" : "Dohār",
      "translatedname" : "Dohār",
      "lat" : "23.59311",
      "lng" : "90.14251"
    }, {
      "geonameid" : "1185106",
      "name" : "Jamālpur",
      "translatedname" : "Jamālpur",
      "lat" : "24.91965",
      "lng" : "89.94812"
    }, {
      "geonameid" : "1185108",
      "name" : "Shibganj",
      "translatedname" : "Shibganj",
      "lat" : "24.68501",
      "lng" : "88.15638"
    }, {
      "geonameid" : "1185111",
      "name" : "Sātkhira",
      "translatedname" : "Sātkhira",
      "lat" : "22.70817",
      "lng" : "89.07185"
    }, {
      "geonameid" : "1185115",
      "name" : "Sirājganj",
      "translatedname" : "Sirājganj",
      "lat" : "24.45771",
      "lng" : "89.70802"
    }, {
      "geonameid" : "1185116",
      "name" : "Netrakona",
      "translatedname" : "Netrakona",
      "lat" : "24.88352",
      "lng" : "90.72898"
    }, {
      "geonameid" : "1185117",
      "name" : "Narsingdi",
      "translatedname" : "Narsingdi",
      "lat" : "23.92298",
      "lng" : "90.71768"
    }, {
      "geonameid" : "1185120",
      "name" : "Sandwīp",
      "translatedname" : "Sandwīp",
      "lat" : "22.51409",
      "lng" : "91.45491"
    }, {
      "geonameid" : "1185121",
      "name" : "Shāhzādpur",
      "translatedname" : "Shāhzādpur",
      "lat" : "24.17687",
      "lng" : "89.5988"
    }, {
      "geonameid" : "1185127",
      "name" : "Rāmganj",
      "translatedname" : "Rāmganj",
      "lat" : "23.1006",
      "lng" : "90.84989"
    }, {
      "geonameid" : "1185128",
      "name" : "Rājshāhi",
      "translatedname" : "Rājshāhi",
      "lat" : "24.374",
      "lng" : "88.60114"
    }, {
      "geonameid" : "1185138",
      "name" : "Pirojpur",
      "translatedname" : "Pirojpur",
      "lat" : "22.57965",
      "lng" : "89.97521"
    }, {
      "geonameid" : "1185141",
      "name" : "Panchagarh",
      "translatedname" : "Panchagarh",
      "lat" : "26.33338",
      "lng" : "88.55777"
    }, {
      "geonameid" : "1185148",
      "name" : "Patiya",
      "translatedname" : "Patiya",
      "lat" : "22.29543",
      "lng" : "91.979"
    }, {
      "geonameid" : "1185149",
      "name" : "Parbatipur",
      "translatedname" : "Parbatipur",
      "lat" : "25.66369",
      "lng" : "88.93093"
    }, {
      "geonameid" : "1185155",
      "name" : "Nārāyanganj",
      "translatedname" : "Nārāyanganj",
      "lat" : "23.61352",
      "lng" : "90.50298"
    }, {
      "geonameid" : "1185156",
      "name" : "Nālchiti",
      "translatedname" : "Nālchiti",
      "lat" : "22.63696",
      "lng" : "90.27195"
    }, {
      "geonameid" : "1185159",
      "name" : "Nāgarpur",
      "translatedname" : "Nāgarpur",
      "lat" : "24.05783",
      "lng" : "89.87696"
    }, {
      "geonameid" : "1185160",
      "name" : "Nageswari",
      "translatedname" : "Nageswari",
      "lat" : "25.96817",
      "lng" : "89.69153"
    }, {
      "geonameid" : "1185162",
      "name" : "Mymensingh",
      "translatedname" : "Mymensingh",
      "lat" : "24.75636",
      "lng" : "90.40646"
    }, {
      "geonameid" : "1185164",
      "name" : "Muktāgācha",
      "translatedname" : "Muktāgācha",
      "lat" : "24.76484",
      "lng" : "90.25698"
    }, {
      "geonameid" : "1185165",
      "name" : "Mirzāpur",
      "translatedname" : "Mirzāpur",
      "lat" : "24.10287",
      "lng" : "90.09841"
    }, {
      "geonameid" : "1185166",
      "name" : "Maulavi Bāzār",
      "translatedname" : "Maulavi Bāzār",
      "lat" : "24.48888",
      "lng" : "91.77075"
    }, {
      "geonameid" : "1185167",
      "name" : "Morrelgonj",
      "translatedname" : "Morrelgonj",
      "lat" : "22.45566",
      "lng" : "89.85584"
    }, {
      "geonameid" : "1185171",
      "name" : "Mehendiganj",
      "translatedname" : "Mehendiganj",
      "lat" : "22.82257",
      "lng" : "90.52859"
    }, {
      "geonameid" : "1185173",
      "name" : "Mathba",
      "translatedname" : "Mathba",
      "lat" : "22.28616",
      "lng" : "89.95882"
    }, {
      "geonameid" : "1185181",
      "name" : "Lalmanirhat",
      "translatedname" : "Lalmanirhat",
      "lat" : "25.91719",
      "lng" : "89.44595"
    }, {
      "geonameid" : "1185183",
      "name" : "Lākshām",
      "translatedname" : "Lākshām",
      "lat" : "23.24018",
      "lng" : "91.12143"
    }, {
      "geonameid" : "1185186",
      "name" : "Comilla",
      "translatedname" : "Comilla",
      "lat" : "23.46186",
      "lng" : "91.18504"
    }, {
      "geonameid" : "1185188",
      "name" : "Rangpur",
      "translatedname" : "Rangpur",
      "lat" : "25.74664",
      "lng" : "89.25166"
    }, {
      "geonameid" : "1185191",
      "name" : "Kushtia",
      "translatedname" : "Kushtia",
      "lat" : "23.9028",
      "lng" : "89.11943"
    }, {
      "geonameid" : "1185199",
      "name" : "Kālīganj",
      "translatedname" : "Kālīganj",
      "lat" : "23.40964",
      "lng" : "89.13801"
    }, {
      "geonameid" : "1185204",
      "name" : "Jhingergācha",
      "translatedname" : "Jhingergācha",
      "lat" : "23.11134",
      "lng" : "89.09061"
    }, {
      "geonameid" : "1185206",
      "name" : "Joypur Hāt",
      "translatedname" : "Joypur Hāt",
      "lat" : "25.10147",
      "lng" : "89.02734"
    }, {
      "geonameid" : "1185207",
      "name" : "Ishurdi",
      "translatedname" : "Ishurdi",
      "lat" : "24.12858",
      "lng" : "89.06573"
    }, {
      "geonameid" : "1185209",
      "name" : "Habiganj",
      "translatedname" : "Habiganj",
      "lat" : "24.38044",
      "lng" : "91.413"
    }, {
      "geonameid" : "1185210",
      "name" : "Gaurnadi",
      "translatedname" : "Gaurnadi",
      "lat" : "22.97372",
      "lng" : "90.22376"
    }, {
      "geonameid" : "1185218",
      "name" : "Gafargaon",
      "translatedname" : "Gafargaon",
      "lat" : "24.432",
      "lng" : "90.5585"
    }, {
      "geonameid" : "1185224",
      "name" : "Feni",
      "translatedname" : "Feni",
      "lat" : "23.01134",
      "lng" : "91.4013"
    }, {
      "geonameid" : "1185236",
      "name" : "Rāipur",
      "translatedname" : "Rāipur",
      "lat" : "23.0391",
      "lng" : "90.76808"
    },